<?xml version="1.0" encoding="utf-8" ?>
<gpx version="1.1" creator="OpenCPN" xmlns:xsi="http://www.w3.org/2001/XMLSchema-instance" xmlns="http://www.topografix.com/GPX/1/1" xsi:schemaLocation="http://www.topografix.com/GPX/1/1 http://www.topografix.com/GPX/1/1/gpx.xsd" xmlns:opencpn="http://www.opencpn.org">
    <wpt lat="55.414999121" lon="12.827066095">
        <time>2011-05-07T11:10:22Z</time>
        <name>Skanoer</name>
        <sym>light</sym>
        <type>WPT</type>
        <extensions>
            <opencpn:guid>32550000-e2d5-4ef8-bbb4-1a322a000000</opencpn:guid>
            <opencpn:viz>1</opencpn:viz>
            <opencpn:viz_name>1</opencpn:viz_name>
        </extensions>
    </wpt>
    <wpt lat="55.535863714" lon="12.710283210">
        <time>2011-05-07T11:10:51Z</time>
        <name>Drogden</name>
        <sym>light</sym>
        <type>WPT</type>
        <extensions>
            <opencpn:guid>47c7ffff-2156-407c-bf5b-27de1ec00000</opencpn:guid>
            <opencpn:viz>1</opencpn:viz>
            <opencpn:viz_name>1</opencpn:viz_name>
        </extensions>
    </wpt>
    <wpt lat="56.149848923" lon="12.541455779">
        <time>2011-05-07T11:12:38Z</time>
        <name>Svinbaadan</name>
        <sym>light</sym>
        <type>WPT</type>
        <extensions>
            <opencpn:guid>5ce7ffff-12d4-4ef0-80a3-4a1824ce0000</opencpn:guid>
            <opencpn:viz>1</opencpn:viz>
            <opencpn:viz_name>1</opencpn:viz_name>
        </extensions>
    </wpt>
    <wpt lat="56.119078933" lon="12.342797938">
        <time>2011-05-07T11:13:07Z</time>
        <name>Gilleleje</name>
        <sym>light</sym>
        <type>WPT</type>
        <extensions>
            <opencpn:guid>4c09ffff-dfff-4f15-8a05-34d81eea0000</opencpn:guid>
            <opencpn:viz>1</opencpn:viz>
            <opencpn:viz_name>1</opencpn:viz_name>
        </extensions>
    </wpt>
    <wpt lat="56.301217028" lon="12.450695168">
        <time>2011-05-07T11:13:42Z</time>
        <name>Kullen</name>
        <sym>light</sym>
        <type>WPT</type>
        <extensions>
            <opencpn:guid>0e9d0000-a0b9-470a-b452-b03b5161ffff</opencpn:guid>
            <opencpn:viz>1</opencpn:viz>
            <opencpn:viz_name>1</opencpn:viz_name>
        </extensions>
    </wpt>
    <wpt lat="56.450935583" lon="12.542090469">
        <time>2011-05-07T11:14:36Z</time>
        <name>Hallands Vaederoe</name>
        <sym>light</sym>
        <type>WPT</type>
        <extensions>
            <opencpn:guid>5407ffff-c479-45b6-b6be-eaff30900000</opencpn:guid>
            <opencpn:viz>1</opencpn:viz>
            <opencpn:viz_name>1</opencpn:viz_name>
        </extensions>
    </wpt>
    <wpt lat="56.635686814" lon="12.703936314">
        <time>2011-05-07T11:15:14Z</time>
        <name>Fyloegrund</name>
        <sym>light</sym>
        <type>WPT</type>
        <extensions>
            <opencpn:guid>7cd8ffff-ded3-4d93-bc7f-c94d7862ffff</opencpn:guid>
            <opencpn:viz>1</opencpn:viz>
            <opencpn:viz_name>1</opencpn:viz_name>
        </extensions>
    </wpt>
    <wpt lat="57.215148580" lon="11.824891232">
        <time>2011-05-07T11:16:42Z</time>
        <name>Fladen</name>
        <sym>light</sym>
        <type>WPT</type>
        <extensions>
            <opencpn:guid>4540ffff-b08f-4b03-9e40-f637523affff</opencpn:guid>
            <opencpn:viz>1</opencpn:viz>
            <opencpn:viz_name>1</opencpn:viz_name>
        </extensions>
    </wpt>
    <wpt lat="57.304396080" lon="11.900419293">
        <time>2011-05-07T11:17:36Z</time>
        <name>Nidingen</name>
        <sym>light</sym>
        <type>WPT</type>
        <extensions>
            <opencpn:guid>0e800000-6aea-403d-a443-939f2ea60000</opencpn:guid>
            <opencpn:viz>1</opencpn:viz>
            <opencpn:viz_name>1</opencpn:viz_name>
        </extensions>
    </wpt>
    <wpt lat="57.633075432" lon="11.600211117">
        <time>2011-05-07T11:18:37Z</time>
        <name>Vinga</name>
        <sym>light</sym>
        <type>WPT</type>
        <extensions>
            <opencpn:guid>1c370000-9f57-459e-974d-b079113a0000</opencpn:guid>
            <opencpn:viz>1</opencpn:viz>
            <opencpn:viz_name>1</opencpn:viz_name>
        </extensions>
    </wpt>
    <wpt lat="57.594320502" lon="11.633849666">
        <time>2011-05-07T11:19:15Z</time>
        <name>Trubaduren</name>
        <sym>light</sym>
        <type>WPT</type>
        <extensions>
            <opencpn:guid>7d70ffff-78ec-44ea-99b1-6aee72c5ffff</opencpn:guid>
            <opencpn:viz>1</opencpn:viz>
            <opencpn:viz_name>1</opencpn:viz_name>
        </extensions>
    </wpt>
    <wpt lat="57.862712637" lon="11.461848787">
        <time>2011-05-07T11:20:12Z</time>
        <name>Haetteberget</name>
        <sym>light</sym>
        <type>WPT</type>
        <extensions>
            <opencpn:guid>66e5ffff-c41d-45d3-9467-02f830850000</opencpn:guid>
            <opencpn:viz>1</opencpn:viz>
            <opencpn:viz_name>1</opencpn:viz_name>
        </extensions>
    </wpt>
    <wpt lat="58.094248698" lon="11.330468042">
        <time>2011-05-07T11:20:59Z</time>
        <name>Maaseskaer</name>
        <sym>light</sym>
        <type>WPT</type>
        <extensions>
            <opencpn:guid>4e29ffff-3a6a-433e-b957-e3b97ff3ffff</opencpn:guid>
            <opencpn:viz>1</opencpn:viz>
            <opencpn:viz_name>1</opencpn:viz_name>
        </extensions>
    </wpt>
    <wpt lat="58.335621388" lon="11.219397363">
        <time>2011-05-07T11:21:37Z</time>
        <name>Haalloe</name>
        <sym>light</sym>
        <type>WPT</type>
        <extensions>
            <opencpn:guid>2f730000-4a08-44a6-9222-04441e250000</opencpn:guid>
            <opencpn:viz>1</opencpn:viz>
            <opencpn:viz_name>1</opencpn:viz_name>
        </extensions>
    </wpt>
    <wpt lat="58.995060717" lon="10.786539063">
        <time>2011-05-07T11:22:48Z</time>
        <name>Torbjoernskjaer</name>
        <sym>light</sym>
        <type>WPT</type>
        <extensions>
            <opencpn:guid>31c20000-1284-43d1-a75f-b5af5c0effff</opencpn:guid>
            <opencpn:viz>1</opencpn:viz>
            <opencpn:viz_name>1</opencpn:viz_name>
        </extensions>
    </wpt>
    <wpt lat="59.024145747" lon="10.527585710">
        <time>2011-05-07T11:23:23Z</time>
        <name>Faerder</name>
        <sym>light</sym>
        <type>WPT</type>
        <extensions>
            <opencpn:guid>2e1f0000-923d-4a8d-87c7-36c40cb40000</opencpn:guid>
            <opencpn:viz>1</opencpn:viz>
            <opencpn:viz_name>1</opencpn:viz_name>
        </extensions>
    </wpt>
    <wpt lat="59.161069544" lon="10.625962597">
        <time>2011-05-07T11:24:54Z</time>
        <name>Hollenderbaaen</name>
        <sym>light</sym>
        <type>WPT</type>
        <extensions>
            <opencpn:guid>43ebffff-adf1-418d-8284-872325050000</opencpn:guid>
            <opencpn:viz>1</opencpn:viz>
            <opencpn:viz_name>1</opencpn:viz_name>
        </extensions>
    </wpt>
    <wpt lat="58.966605518" lon="10.150580094">
        <time>2011-05-07T11:25:28Z</time>
        <name>Svenner</name>
        <sym>light</sym>
        <type>WPT</type>
        <extensions>
            <opencpn:guid>2e6d0000-25cc-4dc2-a8c8-cfe35d2fffff</opencpn:guid>
            <opencpn:viz>1</opencpn:viz>
            <opencpn:viz_name>1</opencpn:viz_name>
        </extensions>
    </wpt>
    <wpt lat="58.863053150" lon="9.597765461">
        <time>2011-05-07T11:26:14Z</time>
        <name>Jomfruland</name>
        <sym>light</sym>
        <type>WPT</type>
        <extensions>
            <opencpn:guid>314b0000-7e00-460c-96a5-89077210ffff</opencpn:guid>
            <opencpn:viz>1</opencpn:viz>
            <opencpn:viz_name>1</opencpn:viz_name>
        </extensions>
    </wpt>
    <wpt lat="58.635200483" lon="9.154117437">
        <time>2011-05-07T11:26:48Z</time>
        <name>Lyngoer</name>
        <sym>light</sym>
        <type>WPT</type>
        <extensions>
            <opencpn:guid>16f80000-87e1-4a74-b071-536a3dc70000</opencpn:guid>
            <opencpn:viz>1</opencpn:viz>
            <opencpn:viz_name>1</opencpn:viz_name>
        </extensions>
    </wpt>
    <wpt lat="58.398868071" lon="8.789805612">
        <time>2011-05-07T11:27:22Z</time>
        <name>Store Torungen</name>
        <sym>light</sym>
        <type>WPT</type>
        <extensions>
            <opencpn:guid>4454ffff-e5df-4b0b-903f-9c3d7325ffff</opencpn:guid>
            <opencpn:viz>1</opencpn:viz>
            <opencpn:viz_name>1</opencpn:viz_name>
        </extensions>
    </wpt>
    <wpt lat="58.253565095" lon="8.529582880">
        <time>2011-05-07T11:27:51Z</time>
        <name>Homborsund</name>
        <sym>light</sym>
        <type>WPT</type>
        <extensions>
            <opencpn:guid>16570000-9f19-46ec-bf19-fd4f7e18ffff</opencpn:guid>
            <opencpn:viz>1</opencpn:viz>
            <opencpn:viz_name>1</opencpn:viz_name>
        </extensions>
    </wpt>
    <wpt lat="58.072102233" lon="8.058643205">
        <time>2011-05-07T11:28:27Z</time>
        <name>Oksoey</name>
        <sym>light</sym>
        <type>WPT</type>
        <extensions>
            <opencpn:guid>77ffffff-c979-43be-8b13-5f30242b0000</opencpn:guid>
            <opencpn:viz>1</opencpn:viz>
            <opencpn:viz_name>1</opencpn:viz_name>
        </extensions>
    </wpt>
    <wpt lat="57.969580095" lon="7.483614436">
        <time>2011-05-07T11:29:40Z</time>
        <name>Ryvingen</name>
        <sym>light</sym>
        <type>WPT</type>
        <extensions>
            <opencpn:guid>6018ffff-bf4d-4497-91ac-1aa67157ffff</opencpn:guid>
            <opencpn:viz>1</opencpn:viz>
            <opencpn:viz_name>1</opencpn:viz_name>
        </extensions>
    </wpt>
    <wpt lat="57.983715345" lon="7.041870481">
        <time>2011-05-07T11:30:13Z</time>
        <name>Lindesnes</name>
        <sym>light</sym>
        <type>WPT</type>
        <extensions>
            <opencpn:guid>37dc0000-ce7d-488c-9f8d-18a42ec20000</opencpn:guid>
            <opencpn:viz>1</opencpn:viz>
            <opencpn:viz_name>1</opencpn:viz_name>
        </extensions>
    </wpt>
    <wpt lat="58.431778026" lon="5.862617223">
        <time>2011-05-07T11:31:10Z</time>
        <name>Eigeroey</name>
        <sym>light</sym>
        <type>WPT</type>
        <extensions>
            <opencpn:guid>17da0000-891b-467d-a48f-67b431ea0000</opencpn:guid>
            <opencpn:viz>1</opencpn:viz>
            <opencpn:viz_name>1</opencpn:viz_name>
        </extensions>
    </wpt>
    <wpt lat="58.660297794" lon="5.550349945">
        <time>2011-05-07T11:31:48Z</time>
        <name>Obrestad</name>
        <sym>light</sym>
        <type>WPT</type>
        <extensions>
            <opencpn:guid>26240000-c189-4591-a5fb-68fc4cacffff</opencpn:guid>
            <opencpn:viz>1</opencpn:viz>
            <opencpn:viz_name>1</opencpn:viz_name>
        </extensions>
    </wpt>
    <wpt lat="58.828247662" lon="5.500844156">
        <time>2011-05-07T11:32:17Z</time>
        <name>Feistein</name>
        <sym>light</sym>
        <type>WPT</type>
        <extensions>
            <opencpn:guid>28910000-5a18-49c5-85f2-84c9137c0000</opencpn:guid>
            <opencpn:viz>1</opencpn:viz>
            <opencpn:viz_name>1</opencpn:viz_name>
        </extensions>
    </wpt>
    <wpt lat="59.061364833" lon="5.398024443">
        <time>2011-05-07T11:32:48Z</time>
        <name>Kvitsoey</name>
        <sym>light</sym>
        <type>WPT</type>
        <extensions>
            <opencpn:guid>3e640000-68dc-4940-a13a-eb0515000000</opencpn:guid>
            <opencpn:viz>1</opencpn:viz>
            <opencpn:viz_name>1</opencpn:viz_name>
        </extensions>
    </wpt>
    <wpt lat="59.131774732" lon="5.240621425">
        <time>2011-05-07T11:33:18Z</time>
        <name>Geitungen</name>
        <sym>light</sym>
        <type>WPT</type>
        <extensions>
            <opencpn:guid>0b950000-03dc-458b-8105-abb34d68ffff</opencpn:guid>
            <opencpn:viz>1</opencpn:viz>
            <opencpn:viz_name>1</opencpn:viz_name>
        </extensions>
    </wpt>
    <wpt lat="59.306519948" lon="4.866154566">
        <time>2011-05-07T11:34:06Z</time>
        <name>Utsira</name>
        <sym>light</sym>
        <type>WPT</type>
        <extensions>
            <opencpn:guid>3d8c0000-14c2-4330-a462-178829f80000</opencpn:guid>
            <opencpn:viz>1</opencpn:viz>
            <opencpn:viz_name>1</opencpn:viz_name>
        </extensions>
    </wpt>
    <wpt lat="59.907613175" lon="5.066716477">
        <time>2011-05-07T11:34:46Z</time>
        <name>Slaatteroey</name>
        <sym>light</sym>
        <type>WPT</type>
        <extensions>
            <opencpn:guid>28d60000-b755-431e-add9-537227ab0000</opencpn:guid>
            <opencpn:viz>1</opencpn:viz>
            <opencpn:viz_name>1</opencpn:viz_name>
        </extensions>
    </wpt>
    <wpt lat="60.129312399" lon="5.009594414">
        <time>2011-05-07T11:35:56Z</time>
        <name>Marstein</name>
        <sym>light</sym>
        <type>WPT</type>
        <extensions>
            <opencpn:guid>655cffff-9665-431f-b118-923d03e40000</opencpn:guid>
            <opencpn:viz>1</opencpn:viz>
            <opencpn:viz_name>1</opencpn:viz_name>
        </extensions>
    </wpt>
    <wpt lat="60.752681874" lon="4.715098444">
        <time>2011-05-07T11:36:48Z</time>
        <name>Hellsoey</name>
        <sym>light</sym>
        <type>WPT</type>
        <extensions>
            <opencpn:guid>13800000-70be-43f2-98f6-80837f99ffff</opencpn:guid>
            <opencpn:viz>1</opencpn:viz>
            <opencpn:viz_name>1</opencpn:viz_name>
        </extensions>
    </wpt>
    <wpt lat="54.372244910" lon="8.643827007">
        <time>2011-05-07T11:37:59Z</time>
        <name>Westerheversand</name>
        <sym>light</sym>
        <type>WPT</type>
        <extensions>
            <opencpn:guid>23c50000-6e62-4b21-9840-6e704e9bffff</opencpn:guid>
            <opencpn:viz>1</opencpn:viz>
            <opencpn:viz_name>1</opencpn:viz_name>
        </extensions>
    </wpt>
    <wpt lat="54.633171320" lon="8.346792278">
        <time>2011-05-07T11:38:27Z</time>
        <name>Amrum</name>
        <sym>light</sym>
        <type>WPT</type>
        <extensions>
            <opencpn:guid>5cc0ffff-7c52-4b33-9a33-268460edffff</opencpn:guid>
            <opencpn:viz>1</opencpn:viz>
            <opencpn:viz_name>1</opencpn:viz_name>
        </extensions>
    </wpt>
    <wpt lat="54.752023207" lon="8.290939595">
        <time>2011-05-07T11:38:54Z</time>
        <name>Hoernum</name>
        <sym>light</sym>
        <type>WPT</type>
        <extensions>
            <opencpn:guid>03a00000-0936-43cf-ae10-bfb905ee0000</opencpn:guid>
            <opencpn:viz>1</opencpn:viz>
            <opencpn:viz_name>1</opencpn:viz_name>
        </extensions>
    </wpt>
    <wpt lat="54.944962665" lon="8.344253520">
        <time>2011-05-07T11:39:20Z</time>
        <name>Kampen</name>
        <sym>light</sym>
        <type>WPT</type>
        <extensions>
            <opencpn:guid>7319ffff-f05b-4295-94f6-b2f7243e0000</opencpn:guid>
            <opencpn:viz>1</opencpn:viz>
            <opencpn:viz_name>1</opencpn:viz_name>
        </extensions>
    </wpt>
    <wpt lat="55.555612810" lon="8.085300167">
        <time>2011-05-07T11:39:49Z</time>
        <name>Blavaandshuk</name>
        <sym>light</sym>
        <type>WPT</type>
        <extensions>
            <opencpn:guid>3e2e0000-d787-4760-b08f-473a7641ffff</opencpn:guid>
            <opencpn:viz>1</opencpn:viz>
            <opencpn:viz_name>1</opencpn:viz_name>
        </extensions>
    </wpt>
    <wpt lat="56.050731133" lon="8.103071476">
        <time>2011-05-07T11:40:26Z</time>
        <name>Lyngvig</name>
        <sym>light</sym>
        <type>WPT</type>
        <extensions>
            <opencpn:guid>3d590000-203e-49dd-9c5a-8f617811ffff</opencpn:guid>
            <opencpn:viz>1</opencpn:viz>
            <opencpn:viz_name>1</opencpn:viz_name>
        </extensions>
    </wpt>
    <wpt lat="56.517171736" lon="8.120842784">
        <time>2011-05-07T11:40:59Z</time>
        <name>Bovbjerg</name>
        <sym>light</sym>
        <type>WPT</type>
        <extensions>
            <opencpn:guid>7395ffff-e50b-43a0-a28f-c8694721ffff</opencpn:guid>
            <opencpn:viz>1</opencpn:viz>
            <opencpn:viz_name>1</opencpn:viz_name>
        </extensions>
    </wpt>
    <wpt lat="56.825442262" lon="8.263013253">
        <time>2011-05-07T11:41:33Z</time>
        <name>Lodbjerg</name>
        <sym>light</sym>
        <type>WPT</type>
        <extensions>
            <opencpn:guid>2e760000-c4b7-435e-a2fe-e1757213ffff</opencpn:guid>
            <opencpn:viz>1</opencpn:viz>
            <opencpn:viz_name>1</opencpn:viz_name>
        </extensions>
    </wpt>
    <wpt lat="57.113280345" lon="8.598129356">
        <time>2011-05-07T11:42:00Z</time>
        <name>Hanstholm</name>
        <sym>light</sym>
        <type>WPT</type>
        <extensions>
            <opencpn:guid>494effff-6252-4c49-a895-dbaf29100000</opencpn:guid>
            <opencpn:viz>1</opencpn:viz>
            <opencpn:viz_name>1</opencpn:viz_name>
        </extensions>
    </wpt>
    <wpt lat="57.584455197" lon="9.946210046">
        <time>2011-05-07T11:42:28Z</time>
        <name>Hirtshals</name>
        <sym>light</sym>
        <type>WPT</type>
        <extensions>
            <opencpn:guid>00590000-3e9c-41c8-be57-68fc781dffff</opencpn:guid>
            <opencpn:viz>1</opencpn:viz>
            <opencpn:viz_name>1</opencpn:viz_name>
        </extensions>
    </wpt>
    <wpt lat="57.736558804" lon="10.634213561">
        <time>2011-05-07T11:43:00Z</time>
        <name>Skagen</name>
        <sym>light</sym>
        <type>WPT</type>
        <extensions>
            <opencpn:guid>10cb0000-976d-4cca-8555-644e14f00000</opencpn:guid>
            <opencpn:viz>1</opencpn:viz>
            <opencpn:viz_name>1</opencpn:viz_name>
        </extensions>
    </wpt>
    <wpt lat="57.487019493" lon="10.624058528">
        <time>2011-05-07T11:44:00Z</time>
        <name>Hirsholm</name>
        <sym>light</sym>
        <type>WPT</type>
        <extensions>
            <opencpn:guid>5ba0ffff-e08d-42ef-8f64-77a2512affff</opencpn:guid>
            <opencpn:viz>1</opencpn:viz>
            <opencpn:viz_name>1</opencpn:viz_name>
        </extensions>
    </wpt>
    <wpt lat="57.359894869" lon="10.923632014">
        <time>2011-05-07T11:44:35Z</time>
        <name>Nordre Roenner</name>
        <sym>light</sym>
        <type>WPT</type>
        <extensions>
            <opencpn:guid>771fffff-c70b-47dc-b67d-37e84704ffff</opencpn:guid>
            <opencpn:viz>1</opencpn:viz>
            <opencpn:viz_name>1</opencpn:viz_name>
        </extensions>
    </wpt>
    <wpt lat="56.955106213" lon="10.424765996">
        <time>2011-05-07T11:45:30Z</time>
        <name>Hals Barre</name>
        <sym>light</sym>
        <type>WPT</type>
        <extensions>
            <opencpn:guid>5f93ffff-4c50-42a0-8f20-78ac46adffff</opencpn:guid>
            <opencpn:viz>1</opencpn:viz>
            <opencpn:viz_name>1</opencpn:viz_name>
        </extensions>
    </wpt>
    <wpt lat="56.737821175" lon="11.649716905">
        <time>2011-05-07T11:46:06Z</time>
        <name>Anholt</name>
        <sym>light</sym>
        <type>WPT</type>
        <extensions>
            <opencpn:guid>0aa80000-3850-428b-b541-97e72c730000</opencpn:guid>
            <opencpn:viz>1</opencpn:viz>
            <opencpn:viz_name>1</opencpn:viz_name>
        </extensions>
    </wpt>
    <wpt lat="56.444270525" lon="10.954097115">
        <time>2011-05-07T11:46:36Z</time>
        <name>Fornaes</name>
        <sym>light</sym>
        <type>WPT</type>
        <extensions>
            <opencpn:guid>0bbf0000-f279-48db-bf7e-28ca4c78ffff</opencpn:guid>
            <opencpn:viz>1</opencpn:viz>
            <opencpn:viz_name>1</opencpn:viz_name>
        </extensions>
    </wpt>
    <wpt lat="56.132875422" lon="10.805579751">
        <time>2011-05-07T11:47:10Z</time>
        <name>Hjelm</name>
        <sym>light</sym>
        <type>WPT</type>
        <extensions>
            <opencpn:guid>0b8d0000-943d-4227-a792-d38527e30000</opencpn:guid>
            <opencpn:viz>1</opencpn:viz>
            <opencpn:viz_name>1</opencpn:viz_name>
        </extensions>
    </wpt>
    <wpt lat="56.196487419" lon="11.710647106">
        <time>2011-05-07T11:47:46Z</time>
        <name>Hesseloe</name>
        <sym>light</sym>
        <type>WPT</type>
        <extensions>
            <opencpn:guid>2b900000-9659-4a3f-8512-741c24570000</opencpn:guid>
            <opencpn:viz>1</opencpn:viz>
            <opencpn:viz_name>1</opencpn:viz_name>
        </extensions>
    </wpt>
    <wpt lat="56.100675915" lon="11.200991365">
        <time>2011-05-07T11:48:38Z</time>
        <name>Sjaellands Rev N</name>
        <sym>light</sym>
        <type>WPT</type>
        <extensions>
            <opencpn:guid>7c17ffff-4de0-4e45-a8e7-9fa17dc1ffff</opencpn:guid>
            <opencpn:viz>1</opencpn:viz>
            <opencpn:viz_name>1</opencpn:viz_name>
        </extensions>
    </wpt>
    <wpt lat="55.976580365" lon="11.854086953">
        <time>2011-05-07T11:49:35Z</time>
        <name>Spodsbjerg</name>
        <sym>light</sym>
        <type>WPT</type>
        <extensions>
            <opencpn:guid>469cffff-1980-4f3e-ade4-d1b73a9b0000</opencpn:guid>
            <opencpn:viz>1</opencpn:viz>
            <opencpn:viz_name>1</opencpn:viz_name>
        </extensions>
    </wpt>
    <wpt lat="55.919006678" lon="11.079765653">
        <time>2011-05-07T11:50:22Z</time>
        <name>Sejeroe</name>
        <sym>light</sym>
        <type>WPT</type>
        <extensions>
            <opencpn:guid>004e0000-46b8-4461-8f27-27c871eaffff</opencpn:guid>
            <opencpn:viz>1</opencpn:viz>
            <opencpn:viz_name>1</opencpn:viz_name>
        </extensions>
    </wpt>
    <wpt lat="55.742913455" lon="10.867779330">
        <time>2011-05-07T11:50:54Z</time>
        <name>Roesnaes</name>
        <sym>light</sym>
        <type>WPT</type>
        <extensions>
            <opencpn:guid>36aa0000-bf55-42d8-9c2c-421c60a6ffff</opencpn:guid>
            <opencpn:viz>1</opencpn:viz>
            <opencpn:viz_name>1</opencpn:viz_name>
        </extensions>
    </wpt>
    <wpt lat="55.770770669" lon="10.549165156">
        <time>2011-05-07T11:52:06Z</time>
        <name>Vesborg</name>
        <sym>light</sym>
        <type>WPT</type>
        <extensions>
            <opencpn:guid>4e7fffff-ddcb-4587-b790-fa8b520fffff</opencpn:guid>
            <opencpn:viz>1</opencpn:viz>
            <opencpn:viz_name>1</opencpn:viz_name>
        </extensions>
    </wpt>
    <wpt lat="55.558484579" lon="10.819542921">
        <time>2011-05-07T11:53:00Z</time>
        <name>Romsoe Tue No 24</name>
        <sym>light</sym>
        <type>WPT</type>
        <extensions>
            <opencpn:guid>70daffff-bc45-448a-8aca-4fce09380000</opencpn:guid>
            <opencpn:viz>1</opencpn:viz>
            <opencpn:viz_name>1</opencpn:viz_name>
        </extensions>
    </wpt>
    <wpt lat="55.160011646" lon="11.133714269">
        <time>2011-05-07T11:53:55Z</time>
        <name>Omoe</name>
        <sym>light</sym>
        <type>WPT</type>
        <extensions>
            <opencpn:guid>6456ffff-9ebd-48e4-b328-d1c13a640000</opencpn:guid>
            <opencpn:viz>1</opencpn:viz>
            <opencpn:viz_name>1</opencpn:viz_name>
        </extensions>
    </wpt>
    <wpt lat="54.835816703" lon="10.962665424">
        <time>2011-05-07T11:54:48Z</time>
        <name>Albuen</name>
        <sym>light</sym>
        <type>WPT</type>
        <extensions>
            <opencpn:guid>6788ffff-f9b3-48d0-90b5-040a26290000</opencpn:guid>
            <opencpn:viz>1</opencpn:viz>
            <opencpn:viz_name>1</opencpn:viz_name>
        </extensions>
    </wpt>
    <wpt lat="54.731139309" lon="10.721483380">
        <time>2011-05-07T11:55:31Z</time>
        <name>Keldsnor</name>
        <sym>light</sym>
        <type>WPT</type>
        <extensions>
            <opencpn:guid>0d6b0000-ea15-4482-af2b-0b3e57aeffff</opencpn:guid>
            <opencpn:viz>1</opencpn:viz>
            <opencpn:viz_name>1</opencpn:viz_name>
        </extensions>
    </wpt>
    <wpt lat="54.440954767" lon="11.016614039">
        <time>2011-05-07T11:56:48Z</time>
        <name>Fluegge</name>
        <sym>light</sym>
        <type>WPT</type>
        <extensions>
            <opencpn:guid>5ba1ffff-8d77-4935-999f-1bc07e22ffff</opencpn:guid>
            <opencpn:viz>1</opencpn:viz>
            <opencpn:viz_name>1</opencpn:viz_name>
        </extensions>
    </wpt>
    <wpt lat="54.499415094" lon="10.273392529">
        <time>2011-05-07T11:57:27Z</time>
        <name>Kiel</name>
        <sym>light</sym>
        <type>WPT</type>
        <extensions>
            <opencpn:guid>0a0c0000-701a-45fd-a587-f83310ab0000</opencpn:guid>
            <opencpn:viz>1</opencpn:viz>
            <opencpn:viz_name>1</opencpn:viz_name>
        </extensions>
    </wpt>
    <wpt lat="54.454793619" lon="10.197547123">
        <time>2011-05-07T11:57:59Z</time>
        <name>Buelk</name>
        <sym>light</sym>
        <type>WPT</type>
        <extensions>
            <opencpn:guid>18080000-7982-473d-a846-bd215941ffff</opencpn:guid>
            <opencpn:viz>1</opencpn:viz>
            <opencpn:viz_name>1</opencpn:viz_name>
        </extensions>
    </wpt>
    <wpt lat="54.390357063" lon="10.193262968">
        <time>2011-05-07T11:58:40Z</time>
        <name>Friedrichsort</name>
        <sym>light</sym>
        <type>WPT</type>
        <extensions>
            <opencpn:guid>15ef0000-4846-42d8-9314-a5814a64ffff</opencpn:guid>
            <opencpn:viz>1</opencpn:viz>
            <opencpn:viz_name>1</opencpn:viz_name>
        </extensions>
    </wpt>
    <wpt lat="54.671473941" lon="10.036216963">
        <time>2011-05-07T12:00:10Z</time>
        <name>Schleimuende</name>
        <sym>light</sym>
        <type>WPT</type>
        <extensions>
            <opencpn:guid>5769ffff-08dc-4734-8b4d-abf94d23ffff</opencpn:guid>
            <opencpn:viz>1</opencpn:viz>
            <opencpn:viz_name>1</opencpn:viz_name>
        </extensions>
    </wpt>
    <wpt lat="54.824826422" lon="9.887897939">
        <time>2011-05-07T12:01:03Z</time>
        <name>Kalkgrund</name>
        <sym>light</sym>
        <type>WPT</type>
        <extensions>
            <opencpn:guid>5b8fffff-b241-47bd-89b8-5aee2d840000</opencpn:guid>
            <opencpn:viz>1</opencpn:viz>
            <opencpn:viz_name>1</opencpn:viz_name>
        </extensions>
    </wpt>
    <wpt lat="54.881185602" lon="10.068943145">
        <time>2011-05-07T12:01:46Z</time>
        <name>Gammel-Poel</name>
        <sym>light</sym>
        <type>WPT</type>
        <extensions>
            <opencpn:guid>16260000-8517-4db3-bb97-9a670b940000</opencpn:guid>
            <opencpn:viz>1</opencpn:viz>
            <opencpn:viz_name>1</opencpn:viz_name>
        </extensions>
    </wpt>
    <wpt lat="54.968901402" lon="10.206036096">
        <time>2011-05-07T12:02:34Z</time>
        <name>Skjoldnaes</name>
        <sym>light</sym>
        <type>WPT</type>
        <extensions>
            <opencpn:guid>39170000-b66d-45e4-8f27-742c40b7ffff</opencpn:guid>
            <opencpn:viz>1</opencpn:viz>
            <opencpn:viz_name>1</opencpn:viz_name>
        </extensions>
    </wpt>
    <wpt lat="54.817421719" lon="10.424686660">
        <time>2011-05-07T12:03:22Z</time>
        <name>Vejsnaes Nakke</name>
        <sym>light</sym>
        <type>WPT</type>
        <extensions>
            <opencpn:guid>400cffff-d71b-4f83-9e98-ca3955abffff</opencpn:guid>
            <opencpn:viz>1</opencpn:viz>
            <opencpn:viz_name>1</opencpn:viz_name>
        </extensions>
    </wpt>
</gpx>
