<?xml version="1.0"?>
<gpx>
	<wpt lat="35.724" lon="-1.13017">
		<type>WPT</type>
		<name>Archipel d'Habibas</name>
	</wpt>
	<wpt lat="37.9138" lon="23.0112">
		<type>WPT</type>
		<name>Canal de Corinthe E</name>
	</wpt>
	<wpt lat="37.9533" lon="22.9583">
		<type>WPT</type>
		<name>Canal de Corinthe W</name>
	</wpt>
	<wpt lat="43.7205" lon="15.8508">
		<type>WPT</type>
		<name>Rivière Krka</name>
	</wpt>
	<wpt lat="40.1753" lon="15.0287">
		<type>WPT</type>
		<name>Acciaroli</name>
	</wpt>
	<wpt lat="38.8857" lon="22.803">
		<type>WPT</type>
		<name>Achladi</name>
	</wpt>
	<wpt lat="37.5617" lon="15.1638">
		<type>WPT</type>
		<name>Aci Trezza</name>
	</wpt>
	<wpt lat="32.9195" lon="35.0708">
		<type>WPT</type>
		<name>Acre</name>
	</wpt>
	<wpt lat="36.7242" lon="24.4483">
		<type>WPT</type>
		<name>Adamas</name>
	</wpt>
	<wpt lat="40.012" lon="4.2045">
		<type>WPT</type>
		<name>Addaia</name>
	</wpt>
	<wpt lat="38.1927" lon="13.3545">
		<type>WPT</type>
		<name>Addaura</name>
	</wpt>
	<wpt lat="36.742" lon="-3.018">
		<type>WPT</type>
		<name>Adra</name>
	</wpt>
	<wpt lat="38.8567" lon="23.038">
		<type>WPT</type>
		<name>Aedipsou</name>
	</wpt>
	<wpt lat="38.255" lon="22.0833">
		<type>WPT</type>
		<name>Aegio Marina</name>
	</wpt>
	<wpt lat="38.4747" lon="20.6408">
		<type>WPT</type>
		<name>Afales</name>
	</wpt>
	<wpt lat="39.2713" lon="23.1628">
		<type>WPT</type>
		<name>Afyssos</name>
	</wpt>
	<wpt lat="43.4267" lon="6.86333">
		<type>WPT</type>
		<name>Agay</name>
	</wpt>
	<wpt lat="38.8717" lon="22.975">
		<type>WPT</type>
		<name>Aghios Georgios Gyaltron</name>
	</wpt>
	<wpt lat="38.2137" lon="22.9613">
		<type>WPT</type>
		<name>Aghios Ioannou</name>
	</wpt>
	<wpt lat="38.4808" lon="20.6728">
		<type>WPT</type>
		<name>Aghios Nicholaos</name>
	</wpt>
	<wpt lat="37.9067" lon="20.7082">
		<type>WPT</type>
		<name>Aghios Nikolaos</name>
	</wpt>
	<wpt lat="35.1917" lon="25.72">
		<type>WPT</type>
		<name>Aghios Nikolaos - -1</name>
	</wpt>
	<wpt lat="35.1833" lon="25.7167">
		<type>WPT</type>
		<name>Aghios Nikolaos - marina</name>
	</wpt>
	<wpt lat="39.7665" lon="19.949">
		<type>WPT</type>
		<name>Aghios Stefanos</name>
	</wpt>
	<wpt lat="38.243" lon="26.1067">
		<type>WPT</type>
		<name>Agia Ermioni</name>
	</wpt>
	<wpt lat="38.3008" lon="26.1488">
		<type>WPT</type>
		<name>Agia Ermioni - -1</name>
	</wpt>
	<wpt lat="35.0945" lon="24.693">
		<type>WPT</type>
		<name>Agia Galini</name>
	</wpt>
	<wpt lat="37.44" lon="24.4308">
		<type>WPT</type>
		<name>Agia Irini</name>
	</wpt>
	<wpt lat="36.6267" lon="27.8833">
		<type>WPT</type>
		<name>Agia Marina</name>
	</wpt>
	<wpt lat="39.6803" lon="22.891">
		<type>WPT</type>
		<name>Agiokampos</name>
	</wpt>
	<wpt lat="38.2953" lon="23.8972">
		<type>WPT</type>
		<name>Agion Apostolon</name>
	</wpt>
	<wpt lat="36.4598" lon="27.3338">
		<type>WPT</type>
		<name>Agios Antonios</name>
	</wpt>
	<wpt lat="36.607" lon="27.7763">
		<type>WPT</type>
		<name>Agios Emilianos</name>
	</wpt>
	<wpt lat="39.7112" lon="19.6667">
		<type>WPT</type>
		<name>Agios Georgios</name>
	</wpt>
	<wpt lat="38.837" lon="22.8855">
		<type>WPT</type>
		<name>Agios Georgios - -1</name>
	</wpt>
	<wpt lat="36.5973" lon="27.8753">
		<type>WPT</type>
		<name>Agios Georgiou</name>
	</wpt>
	<wpt lat="39.4217" lon="23.1625">
		<type>WPT</type>
		<name>Agios Ioannis</name>
	</wpt>
	<wpt lat="38.6588" lon="23.1833">
		<type>WPT</type>
		<name>Agios Ioannis Theologos</name>
	</wpt>
	<wpt lat="38.7583" lon="22.8612">
		<type>WPT</type>
		<name>Agios Konstantinos</name>
	</wpt>
	<wpt lat="39.0903" lon="23.068">
		<type>WPT</type>
		<name>Agios Kyriaki</name>
	</wpt>
	<wpt lat="38.9328" lon="20.8733">
		<type>WPT</type>
		<name>Agios Markou Ormos</name>
	</wpt>
	<wpt lat="37.4538" lon="26.9662">
		<type>WPT</type>
		<name>Agiou Georgiou</name>
	</wpt>
	<wpt lat="39.0895" lon="23.6583">
		<type>WPT</type>
		<name>Agnondas</name>
	</wpt>
	<wpt lat="39.3358" lon="23.0112">
		<type>WPT</type>
		<name>Agria</name>
	</wpt>
	<wpt lat="36.5833" lon="26.4233">
		<type>WPT</type>
		<name>Agrilithi</name>
	</wpt>
	<wpt lat="40.355" lon="14.9833">
		<type>WPT</type>
		<name>Agropoli</name>
	</wpt>
	<wpt lat="36.813" lon="-2.56283">
		<type>WPT</type>
		<name>Aguadulce</name>
	</wpt>
	<wpt lat="37.4067" lon="-1.57367">
		<type>WPT</type>
		<name>Aguilas</name>
	</wpt>
	<wpt lat="36.9025" lon="25.9752">
		<type>WPT</type>
		<name>Aigialis</name>
	</wpt>
	<wpt lat="41.9367" lon="3.21833">
		<type>WPT</type>
		<name>Aiguablava</name>
	</wpt>
	<wpt lat="41.225" lon="1.82167">
		<type>WPT</type>
		<name>Aiguadolç</name>
	</wpt>
	<wpt lat="43.5667" lon="4.18667">
		<type>WPT</type>
		<name>Aigues-Mortes</name>
	</wpt>
	<wpt lat="41.9303" lon="8.747">
		<type>WPT</type>
		<name>Ajaccio - Charles Ornano ex Amirauté</name>
	</wpt>
	<wpt lat="41.9205" lon="8.74467">
		<type>WPT</type>
		<name>Ajaccio - Tino Rossi</name>
	</wpt>
	<wpt lat="33.695" lon="10.735">
		<type>WPT</type>
		<name>Ajim</name>
	</wpt>
	<wpt lat="38.8225" lon="22.8272">
		<type>WPT</type>
		<name>Ak Lichada</name>
	</wpt>
	<wpt lat="37.3878" lon="27.3942">
		<type>WPT</type>
		<name>Akbük</name>
	</wpt>
	<wpt lat="37.0287" lon="28.1155">
		<type>WPT</type>
		<name>Akbük limani</name>
	</wpt>
	<wpt lat="39.0067" lon="22.963">
		<type>WPT</type>
		<name>Akhileion</name>
	</wpt>
	<wpt lat="42.052" lon="35.0503">
		<type>WPT</type>
		<name>Aklimani</name>
	</wpt>
	<wpt lat="38.1727" lon="22.3168">
		<type>WPT</type>
		<name>Akratas</name>
	</wpt>
	<wpt lat="36.8133" lon="25.7908">
		<type>WPT</type>
		<name>Akrotiri</name>
	</wpt>
	<wpt lat="37.0037" lon="27.3875">
		<type>WPT</type>
		<name>Akvaryum</name>
	</wpt>
	<wpt lat="36.9667" lon="27.2933">
		<type>WPT</type>
		<name>Akyarlar</name>
	</wpt>
	<wpt lat="35.5167" lon="35.7647">
		<type>WPT</type>
		<name>Al'Ladhiqiyah - (Lattaquie)</name>
	</wpt>
	<wpt lat="38.2342" lon="26.3817">
		<type>WPT</type>
		<name>Alacati Limani</name>
	</wpt>
	<wpt lat="38.2517" lon="26.3867">
		<type>WPT</type>
		<name>Alaçati Marina - Port Egrilar</name>
	</wpt>
	<wpt lat="36.9967" lon="27.65">
		<type>WPT</type>
		<name>Alakisla Bükü - Yildiz Adasi</name>
	</wpt>
	<wpt lat="36.535" lon="32.0033">
		<type>WPT</type>
		<name>Alanya</name>
	</wpt>
	<wpt lat="36.5547" lon="31.9507">
		<type>WPT</type>
		<name>Alanya - marina</name>
	</wpt>
	<wpt lat="44.0187" lon="8.193">
		<type>WPT</type>
		<name>Alassio</name>
	</wpt>
	<wpt lat="39.8378" lon="3.13667">
		<type>WPT</type>
		<name>Alcudia - Alcudiamar</name>
	</wpt>
	<wpt lat="38.09" lon="23.1872">
		<type>WPT</type>
		<name>Alepochoriou</name>
	</wpt>
	<wpt lat="40.8333" lon="25.8987">
		<type>WPT</type>
		<name>Alexandroupolis</name>
	</wpt>
	<wpt lat="42.6133" lon="8.85667">
		<type>WPT</type>
		<name>Algajola</name>
	</wpt>
	<wpt lat="36.1175" lon="-5.43333">
		<type>WPT</type>
		<name>Algeciras</name>
	</wpt>
	<wpt lat="36.7697" lon="3.08383">
		<type>WPT</type>
		<name>Alger</name>
	</wpt>
	<wpt lat="40.5592" lon="8.30767">
		<type>WPT</type>
		<name>Alghero</name>
	</wpt>
	<wpt lat="38.838" lon="26.9533">
		<type>WPT</type>
		<name>Aliaga</name>
	</wpt>
	<wpt lat="38.3258" lon="-0.490667">
		<type>WPT</type>
		<name>Alicante</name>
	</wpt>
	<wpt lat="43.0133" lon="6.23">
		<type>WPT</type>
		<name>Alicastre - (baie d')</name>
	</wpt>
	<wpt lat="38.5333" lon="14.3633">
		<type>WPT</type>
		<name>Alicudi - Scalo Palomba</name>
	</wpt>
	<wpt lat="36.8508" lon="25.5283">
		<type>WPT</type>
		<name>Aligaria</name>
	</wpt>
	<wpt lat="36.9917" lon="25.1317">
		<type>WPT</type>
		<name>Aliki</name>
	</wpt>
	<wpt lat="40.6" lon="24.735">
		<type>WPT</type>
		<name>Aliki - -1</name>
	</wpt>
	<wpt lat="38.1955" lon="23.0475">
		<type>WPT</type>
		<name>Alikis</name>
	</wpt>
	<wpt lat="36.2678" lon="27.7075">
		<type>WPT</type>
		<name>Alimia</name>
	</wpt>
	<wpt lat="37.1588" lon="26.8513">
		<type>WPT</type>
		<name>Alindas - Agias Marina</name>
	</wpt>
	<wpt lat="38.3927" lon="24.0467">
		<type>WPT</type>
		<name>Aliveri - Karavos</name>
	</wpt>
	<wpt lat="36.8305" lon="-2.46383">
		<type>WPT</type>
		<name>Almeria</name>
	</wpt>
	<wpt lat="36.6978" lon="-2.79867">
		<type>WPT</type>
		<name>Almerimar</name>
	</wpt>
	<wpt lat="38.586" lon="-0.0541667">
		<type>WPT</type>
		<name>Altea</name>
	</wpt>
	<wpt lat="37.35" lon="27.28">
		<type>WPT</type>
		<name>Altinkum - Karakuyu Iskele</name>
	</wpt>
	<wpt lat="39.5653" lon="26.7447">
		<type>WPT</type>
		<name>Altinoluk</name>
	</wpt>
	<wpt lat="36.9772" lon="25.39">
		<type>WPT</type>
		<name>Alyko  beach</name>
	</wpt>
	<wpt lat="40.6323" lon="14.6022">
		<type>WPT</type>
		<name>Amalfi</name>
	</wpt>
	<wpt lat="39.1687" lon="22.8897">
		<type>WPT</type>
		<name>Amaliapolis</name>
	</wpt>
	<wpt lat="38.392" lon="23.8778">
		<type>WPT</type>
		<name>Amarinthos</name>
	</wpt>
	<wpt lat="41.7467" lon="32.4">
		<type>WPT</type>
		<name>Amasra</name>
	</wpt>
	<wpt lat="36.8272" lon="28.0483">
		<type>WPT</type>
		<name>Amazon Köyü</name>
	</wpt>
	<wpt lat="37.9517" lon="23.5483">
		<type>WPT</type>
		<name>Ambelakia - Bekris Shipyard</name>
	</wpt>
	<wpt lat="44.0458" lon="9.9875">
		<type>WPT</type>
		<name>Ameglia - Bocca di Magra</name>
	</wpt>
	<wpt lat="38.8667" lon="21.1638">
		<type>WPT</type>
		<name>Amfilokhia</name>
	</wpt>
	<wpt lat="39.2375" lon="20.4762">
		<type>WPT</type>
		<name>Ammoudia</name>
	</wpt>
	<wpt lat="36.3417" lon="25.7722">
		<type>WPT</type>
		<name>Anafi</name>
	</wpt>
	<wpt lat="35.9598" lon="14.3392">
		<type>WPT</type>
		<name>Anchor Bay</name>
	</wpt>
	<wpt lat="43.611" lon="13.4795">
		<type>WPT</type>
		<name>Ancona - marina Dorica</name>
	</wpt>
	<wpt lat="43.9498" lon="8.1605">
		<type>WPT</type>
		<name>Andora</name>
	</wpt>
	<wpt lat="39.5417" lon="2.37667">
		<type>WPT</type>
		<name>Andraitx</name>
	</wpt>
	<wpt lat="36.5717" lon="26.342">
		<type>WPT</type>
		<name>Andreas</name>
	</wpt>
	<wpt lat="36.2237" lon="29.9363">
		<type>WPT</type>
		<name>Andriake - Myra</name>
	</wpt>
	<wpt lat="37.8458" lon="24.95">
		<type>WPT</type>
		<name>Andros</name>
	</wpt>
	<wpt lat="36.8927" lon="7.78467">
		<type>WPT</type>
		<name>Annaba</name>
	</wpt>
	<wpt lat="42.9245" lon="9.36">
		<type>WPT</type>
		<name>Anse d'Aliso</name>
	</wpt>
	<wpt lat="43.1467" lon="6.43">
		<type>WPT</type>
		<name>Anse de Cavalière</name>
	</wpt>
	<wpt lat="42.1678" lon="8.58783">
		<type>WPT</type>
		<name>Anse de Chioni</name>
	</wpt>
	<wpt lat="41.3937" lon="9.13317">
		<type>WPT</type>
		<name>Anse de Fazzio</name>
	</wpt>
	<wpt lat="43.545" lon="7.128">
		<type>WPT</type>
		<name>Anse de l'Argent Faux</name>
	</wpt>
	<wpt lat="43.0028" lon="6.25167">
		<type>WPT</type>
		<name>Anse de la Galère</name>
	</wpt>
	<wpt lat="43.5577" lon="7.1385">
		<type>WPT</type>
		<name>Anse de La Garoupe</name>
	</wpt>
	<wpt lat="43.6865" lon="7.342">
		<type>WPT</type>
		<name>Anse de la Scaletta</name>
	</wpt>
	<wpt lat="43.6993" lon="7.31817">
		<type>WPT</type>
		<name>Anse de Passable</name>
	</wpt>
	<wpt lat="43.0067" lon="6.18667">
		<type>WPT</type>
		<name>Anse du Bon Renaud</name>
	</wpt>
	<wpt lat="36.8322" lon="30.6077">
		<type>WPT</type>
		<name>Antalya - Celebi marina</name>
	</wpt>
	<wpt lat="36.8833" lon="30.7">
		<type>WPT</type>
		<name>Antalya - Kaleiçi Marina</name>
	</wpt>
	<wpt lat="43.592" lon="7.13133">
		<type>WPT</type>
		<name>Antibes - Vauban</name>
	</wpt>
	<wpt lat="38.3758" lon="22.6327">
		<type>WPT</type>
		<name>Antikirion</name>
	</wpt>
	<wpt lat="37.0375" lon="25.0858">
		<type>WPT</type>
		<name>Antiparos</name>
	</wpt>
	<wpt lat="38.3278" lon="21.7667">
		<type>WPT</type>
		<name>Antirriou - Pont Antirion-Rion</name>
	</wpt>
	<wpt lat="38.2617" lon="20.6745">
		<type>WPT</type>
		<name>Antisamos</name>
	</wpt>
	<wpt lat="41.4437" lon="12.6397">
		<type>WPT</type>
		<name>Anzio</name>
	</wpt>
	<wpt lat="37.1817" lon="25.555">
		<type>WPT</type>
		<name>Apollonos</name>
	</wpt>
	<wpt lat="36.7653" lon="24.5288">
		<type>WPT</type>
		<name>Appolonia</name>
	</wpt>
	<wpt lat="45.6917" lon="13.0723">
		<type>WPT</type>
		<name>Aprilia Marittima</name>
	</wpt>
	<wpt lat="45.6917" lon="13.0692">
		<type>WPT</type>
		<name>Aprilia Marittima - marina Capo Nord</name>
	</wpt>
	<wpt lat="45.698" lon="13.077">
		<type>WPT</type>
		<name>Aprilia Marittima - marina Punta Gabbiani</name>
	</wpt>
	<wpt lat="45.6967" lon="13.0723">
		<type>WPT</type>
		<name>Aprilia Marittima - Latisana</name>
	</wpt>
	<wpt lat="45.757" lon="13.355">
		<type>WPT</type>
		<name>Aquileia</name>
	</wpt>
	<wpt lat="36.6488" lon="28.147">
		<type>WPT</type>
		<name>Arap Adasi</name>
	</wpt>
	<wpt lat="39.9433" lon="9.70117">
		<type>WPT</type>
		<name>Arbatax</name>
	</wpt>
	<wpt lat="39.9433" lon="9.70117">
		<type>WPT</type>
		<name>Arbatax - marina di Arbatax</name>
	</wpt>
	<wpt lat="41.477" lon="9.015">
		<type>WPT</type>
		<name>Arbitro</name>
	</wpt>
	<wpt lat="36.6292" lon="22.8763">
		<type>WPT</type>
		<name>Archaggelos</name>
	</wpt>
	<wpt lat="43.5167" lon="10.3158">
		<type>WPT</type>
		<name>Ardenza</name>
	</wpt>
	<wpt lat="41.575" lon="2.555">
		<type>WPT</type>
		<name>Arenys de Mar</name>
	</wpt>
	<wpt lat="44.3995" lon="8.6875">
		<type>WPT</type>
		<name>Arenzano</name>
	</wpt>
	<wpt lat="42.543" lon="3.05667">
		<type>WPT</type>
		<name>Argelès-sur-mer - Port Argelès</name>
	</wpt>
	<wpt lat="38.1787" lon="20.49">
		<type>WPT</type>
		<name>Argostoli</name>
	</wpt>
	<wpt lat="38.1805" lon="20.4945">
		<type>WPT</type>
		<name>Argostoli - marina</name>
	</wpt>
	<wpt lat="38.7533" lon="23.0233">
		<type>WPT</type>
		<name>Arkitsas</name>
	</wpt>
	<wpt lat="38.5487" lon="20.7123">
		<type>WPT</type>
		<name>Arkoudi</name>
	</wpt>
	<wpt lat="43.8317" lon="7.86">
		<type>WPT</type>
		<name>Arma di Taggia</name>
	</wpt>
	<wpt lat="35.9928" lon="14.3597">
		<type>WPT</type>
		<name>Armier Bay</name>
	</wpt>
	<wpt lat="40.5083" lon="28.825">
		<type>WPT</type>
		<name>Armutlu</name>
	</wpt>
	<wpt lat="31.7983" lon="34.6267">
		<type>WPT</type>
		<name>Ashdod - Blue Marina</name>
	</wpt>
	<wpt lat="37.2817" lon="27.5887">
		<type>WPT</type>
		<name>Asin Köyu</name>
	</wpt>
	<wpt lat="37.2728" lon="27.5837">
		<type>WPT</type>
		<name>Asin Limani</name>
	</wpt>
	<wpt lat="31.6865" lon="34.5543">
		<type>WPT</type>
		<name>Askhelon</name>
	</wpt>
	<wpt lat="40.6142" lon="27.7058">
		<type>WPT</type>
		<name>Asmaliköy</name>
	</wpt>
	<wpt lat="36.9758" lon="27.3122">
		<type>WPT</type>
		<name>Aspat Koyu</name>
	</wpt>
	<wpt lat="39.2958" lon="26.4333">
		<type>WPT</type>
		<name>Aspronisos - (île d')</name>
	</wpt>
	<wpt lat="38.3778" lon="20.5388">
		<type>WPT</type>
		<name>Assos</name>
	</wpt>
	<wpt lat="39.4842" lon="26.3383">
		<type>WPT</type>
		<name>Assos - -1</name>
	</wpt>
	<wpt lat="38.5305" lon="21.0805">
		<type>WPT</type>
		<name>Astakos</name>
	</wpt>
	<wpt lat="37.4135" lon="22.7672">
		<type>WPT</type>
		<name>Astros</name>
	</wpt>
	<wpt lat="37.9167" lon="23.6667">
		<type>WPT</type>
		<name>Athènes</name>
	</wpt>
	<wpt lat="37.9112" lon="23.7">
		<type>WPT</type>
		<name>Athènes - Alimos</name>
	</wpt>
	<wpt lat="37.9347" lon="23.6792">
		<type>WPT</type>
		<name>Athènes - Flisvos Marina</name>
	</wpt>
	<wpt lat="37.8612" lon="23.7445">
		<type>WPT</type>
		<name>Athènes - Glyfada 1, 2, 3</name>
	</wpt>
	<wpt lat="37.8708" lon="23.7305">
		<type>WPT</type>
		<name>Athènes - Glyfada 4</name>
	</wpt>
	<wpt lat="37.938" lon="23.6195">
		<type>WPT</type>
		<name>Athènes - Le Pirée</name>
	</wpt>
	<wpt lat="37.9367" lon="23.662">
		<type>WPT</type>
		<name>Athènes - Mounichas</name>
	</wpt>
	<wpt lat="37.9333" lon="23.6528">
		<type>WPT</type>
		<name>Athènes - Zea marina</name>
	</wpt>
	<wpt lat="37.2312" lon="15.2177">
		<type>WPT</type>
		<name>Augusta - Cala del Molo</name>
	</wpt>
	<wpt lat="37.1737" lon="15.2173">
		<type>WPT</type>
		<name>Augusta - Porto Megarese</name>
	</wpt>
	<wpt lat="37.2395" lon="15.2277">
		<type>WPT</type>
		<name>Augusta - Porto Xifonio</name>
	</wpt>
	<wpt lat="39.8412" lon="19.3787">
		<type>WPT</type>
		<name>Avlaki</name>
	</wpt>
	<wpt lat="36.4375" lon="25.353">
		<type>WPT</type>
		<name>Ay Nikolaou</name>
	</wpt>
	<wpt lat="36.1455" lon="33.327">
		<type>WPT</type>
		<name>Aydincik Limani</name>
	</wpt>
	<wpt lat="37.3887" lon="23.0817">
		<type>WPT</type>
		<name>Ayios Nikolaos</name>
	</wpt>
	<wpt lat="39.3145" lon="26.6885">
		<type>WPT</type>
		<name>Ayvalik - Ayvalik Setur Marina</name>
	</wpt>
	<wpt lat="36.6903" lon="28.6905">
		<type>WPT</type>
		<name>Baba adasi</name>
	</wpt>
	<wpt lat="39.4798" lon="26.06">
		<type>WPT</type>
		<name>Baba Burun</name>
	</wpt>
	<wpt lat="40.8173" lon="14.0788">
		<type>WPT</type>
		<name>Bacoli - Baia</name>
	</wpt>
	<wpt lat="40.7875" lon="14.0913">
		<type>WPT</type>
		<name>Bacoli - Porto Miseno</name>
	</wpt>
	<wpt lat="39.0127" lon="26.7997">
		<type>WPT</type>
		<name>Bademli</name>
	</wpt>
	<wpt lat="36.9713" lon="27.3022">
		<type>WPT</type>
		<name>Baglar Koyu</name>
	</wpt>
	<wpt lat="38.3" lon="15.8157">
		<type>WPT</type>
		<name>Bagnara Calabra</name>
	</wpt>
	<wpt lat="38.2983" lon="15.8162">
		<type>WPT</type>
		<name>Bagnara Calabra</name>
	</wpt>
	<wpt lat="40.7983" lon="14.17">
		<type>WPT</type>
		<name>Bagnoli</name>
	</wpt>
	<wpt lat="38.1295" lon="26.8312">
		<type>WPT</type>
		<name>Bahadiriçi Koyu</name>
	</wpt>
	<wpt lat="38.1297" lon="26.8313">
		<type>WPT</type>
		<name>Bahadiriçi Koyu - -1</name>
	</wpt>
	<wpt lat="37.1193" lon="27.2813">
		<type>WPT</type>
		<name>Bahçe Koyü</name>
	</wpt>
	<wpt lat="41.1437" lon="9.4805">
		<type>WPT</type>
		<name>Baia Sardinia - cala Battistone</name>
	</wpt>
	<wpt lat="41.1275" lon="9.46767">
		<type>WPT</type>
		<name>Baia Sardinia - cala Bitta</name>
	</wpt>
	<wpt lat="38.8333" lon="24.55">
		<type>WPT</type>
		<name>Baie d'Aragma</name>
	</wpt>
	<wpt lat="36.9782" lon="15.2597">
		<type>WPT</type>
		<name>Baie d'Ognina</name>
	</wpt>
	<wpt lat="41.7362" lon="8.78033">
		<type>WPT</type>
		<name>Baie de Cupabia</name>
	</wpt>
	<wpt lat="36.9778" lon="23.0055">
		<type>WPT</type>
		<name>Baie de Kyparissi</name>
	</wpt>
	<wpt lat="43.005" lon="6.20667">
		<type>WPT</type>
		<name>Baie de la Courtade</name>
	</wpt>
	<wpt lat="38.8167" lon="24.3667">
		<type>WPT</type>
		<name>Baie de Limani</name>
	</wpt>
	<wpt lat="42.5042" lon="3.12783">
		<type>WPT</type>
		<name>Baie de Paulilles</name>
	</wpt>
	<wpt lat="36.925" lon="21.6833">
		<type>WPT</type>
		<name>Baie de Pilos</name>
	</wpt>
	<wpt lat="43.0125" lon="6.41467">
		<type>WPT</type>
		<name>Baie de Port-Man</name>
	</wpt>
	<wpt lat="41.634" lon="9.35483">
		<type>WPT</type>
		<name>Baie de San Ciprianu</name>
	</wpt>
	<wpt lat="41.524" lon="9.27833">
		<type>WPT</type>
		<name>Baie de Santa Giulia</name>
	</wpt>
	<wpt lat="35.4917" lon="24.1">
		<type>WPT</type>
		<name>Baie de Souda</name>
	</wpt>
	<wpt lat="42.975" lon="9.45667">
		<type>WPT</type>
		<name>Baie de Tamarone</name>
	</wpt>
	<wpt lat="37.39" lon="24.945">
		<type>WPT</type>
		<name>Baie de Vari</name>
	</wpt>
	<wpt lat="36.9275" lon="24.6845">
		<type>WPT</type>
		<name>Baie de Vathy</name>
	</wpt>
	<wpt lat="39.155" lon="20.2235">
		<type>WPT</type>
		<name>Baie de Voutoumi</name>
	</wpt>
	<wpt lat="43.0033" lon="6.165">
		<type>WPT</type>
		<name>Baie du Langoustier</name>
	</wpt>
	<wpt lat="38.2958" lon="21.1055">
		<type>WPT</type>
		<name>Baie SE Oxia</name>
	</wpt>
	<wpt lat="38.7588" lon="24.5813">
		<type>WPT</type>
		<name>Baie Tristomo</name>
	</wpt>
	<wpt lat="38.051" lon="13.006">
		<type>WPT</type>
		<name>Balestrate</name>
	</wpt>
	<wpt lat="40.4597" lon="27.6255">
		<type>WPT</type>
		<name>Balikli</name>
	</wpt>
	<wpt lat="40.3583" lon="27.9555">
		<type>WPT</type>
		<name>Bandirma</name>
	</wpt>
	<wpt lat="43.1333" lon="5.76">
		<type>WPT</type>
		<name>Bandol</name>
	</wpt>
	<wpt lat="35.1883" lon="35.9437">
		<type>WPT</type>
		<name>Banias</name>
	</wpt>
	<wpt lat="42.4825" lon="3.13467">
		<type>WPT</type>
		<name>Banyuls-sur-mer</name>
	</wpt>
	<wpt lat="42.1" lon="19.0862">
		<type>WPT</type>
		<name>Bar</name>
	</wpt>
	<wpt lat="43.0137" lon="9.41117">
		<type>WPT</type>
		<name>Barcaggio</name>
	</wpt>
	<wpt lat="41.386" lon="2.2">
		<type>WPT</type>
		<name>Barcelona - Port Olimpic</name>
	</wpt>
	<wpt lat="41.3677" lon="2.18367">
		<type>WPT</type>
		<name>Barcelona - Port Vell</name>
	</wpt>
	<wpt lat="45.6818" lon="13.7498">
		<type>WPT</type>
		<name>Barcola</name>
	</wpt>
	<wpt lat="41.145" lon="16.8467">
		<type>WPT</type>
		<name>Bari - Porto Nuovo</name>
	</wpt>
	<wpt lat="41.3325" lon="16.292">
		<type>WPT</type>
		<name>Barletta</name>
	</wpt>
	<wpt lat="42.6947" lon="9.45367">
		<type>WPT</type>
		<name>Bastia</name>
	</wpt>
	<wpt lat="42.71" lon="9.45667">
		<type>WPT</type>
		<name>Bastia - port Toga</name>
	</wpt>
	<wpt lat="37.8503" lon="24.7847">
		<type>WPT</type>
		<name>Batsi</name>
	</wpt>
	<wpt lat="36.1742" lon="29.6483">
		<type>WPT</type>
		<name>Bayindir limani</name>
	</wpt>
	<wpt lat="43.7067" lon="7.34">
		<type>WPT</type>
		<name>Beaulieu-sur-Mer</name>
	</wpt>
	<wpt lat="43.7028" lon="7.33167">
		<type>WPT</type>
		<name>Beaulieu-sur-Mer - Les Fourmis</name>
	</wpt>
	<wpt lat="41.0767" lon="29.0458">
		<type>WPT</type>
		<name>Bebek</name>
	</wpt>
	<wpt lat="36.75" lon="5.1">
		<type>WPT</type>
		<name>Bejaia</name>
	</wpt>
	<wpt lat="35.6217" lon="11.0497">
		<type>WPT</type>
		<name>Bekalta</name>
	</wpt>
	<wpt lat="44.1447" lon="12.4735">
		<type>WPT</type>
		<name>Bellaria</name>
	</wpt>
	<wpt lat="44.1425" lon="12.475">
		<type>WPT</type>
		<name>Bellaria - porto canale</name>
	</wpt>
	<wpt lat="39.6073" lon="15.8542">
		<type>WPT</type>
		<name>Belvedere Marittimo - Riva di Scidro</name>
	</wpt>
	<wpt lat="36.5933" lon="-4.5145">
		<type>WPT</type>
		<name>Benalmadena</name>
	</wpt>
	<wpt lat="36.77" lon="28.0383">
		<type>WPT</type>
		<name>Bençik Limani</name>
	</wpt>
	<wpt lat="43.1288" lon="5.752">
		<type>WPT</type>
		<name>Bendor</name>
	</wpt>
	<wpt lat="36.4517" lon="10.7967">
		<type>WPT</type>
		<name>Beni Khiar</name>
	</wpt>
	<wpt lat="35.3088" lon="-1.38883">
		<type>WPT</type>
		<name>Beni Saf</name>
	</wpt>
	<wpt lat="40.4097" lon="0.433333">
		<type>WPT</type>
		<name>Benicarlo</name>
	</wpt>
	<wpt lat="38.5345" lon="-0.133667">
		<type>WPT</type>
		<name>Benidorm</name>
	</wpt>
	<wpt lat="39.5478" lon="19.913">
		<type>WPT</type>
		<name>Benitses</name>
	</wpt>
	<wpt lat="43.8217" lon="15.6058">
		<type>WPT</type>
		<name>Betina</name>
	</wpt>
	<wpt lat="33.8833" lon="35.4917">
		<type>WPT</type>
		<name>Beyrouth</name>
	</wpt>
	<wpt lat="33.9025" lon="35.4917">
		<type>WPT</type>
		<name>Beyrouth - Solidere</name>
	</wpt>
	<wpt lat="45.6352" lon="12.9955">
		<type>WPT</type>
		<name>Bibione - Porto Baseleghe</name>
	</wpt>
	<wpt lat="42.3555" lon="18.7017">
		<type>WPT</type>
		<name>Bigova</name>
	</wpt>
	<wpt lat="43.9385" lon="15.4375">
		<type>WPT</type>
		<name>Biograd-Na-Moru - marina Kornati</name>
	</wpt>
	<wpt lat="41.246" lon="16.5105">
		<type>WPT</type>
		<name>Bisceglie</name>
	</wpt>
	<wpt lat="37.2733" lon="9.88667">
		<type>WPT</type>
		<name>Bizerte</name>
	</wpt>
	<wpt lat="41.6717" lon="2.79667">
		<type>WPT</type>
		<name>Blanes</name>
	</wpt>
	<wpt lat="37.9262" lon="20.7048">
		<type>WPT</type>
		<name>Blue cave</name>
	</wpt>
	<wpt lat="35.8205" lon="14.4578">
		<type>WPT</type>
		<name>Blue Grotto</name>
	</wpt>
	<wpt lat="36.015" lon="14.3228">
		<type>WPT</type>
		<name>Blue Lagoon</name>
	</wpt>
	<wpt lat="37.0297" lon="27.4235">
		<type>WPT</type>
		<name>Bodrum - Milta marina</name>
	</wpt>
	<wpt lat="37.0245" lon="27.4208">
		<type>WPT</type>
		<name>Bodrum - Tesisi Limani</name>
	</wpt>
	<wpt lat="38.0683" lon="12.5933">
		<type>WPT</type>
		<name>Bonagia</name>
	</wpt>
	<wpt lat="39.8667" lon="3.14217">
		<type>WPT</type>
		<name>Bonaire</name>
	</wpt>
	<wpt lat="41.3867" lon="9.14667">
		<type>WPT</type>
		<name>Bonifacio</name>
	</wpt>
	<wpt lat="43.7803" lon="7.6785">
		<type>WPT</type>
		<name>Bordighera</name>
	</wpt>
	<wpt lat="44.1283" lon="15.2088">
		<type>WPT</type>
		<name>Borik</name>
	</wpt>
	<wpt lat="43.1267" lon="6.38283">
		<type>WPT</type>
		<name>Bormes-les-Mimosas</name>
	</wpt>
	<wpt lat="38.4088" lon="26.4912">
		<type>WPT</type>
		<name>Bos Adasi</name>
	</wpt>
	<wpt lat="40.2842" lon="8.47167">
		<type>WPT</type>
		<name>Bosa Marina</name>
	</wpt>
	<wpt lat="33.5395" lon="10.6895">
		<type>WPT</type>
		<name>Boughrara</name>
	</wpt>
	<wpt lat="43.4133" lon="6.8055">
		<type>WPT</type>
		<name>Boulouris - Le Toukan</name>
	</wpt>
	<wpt lat="38.4083" lon="23.638">
		<type>WPT</type>
		<name>Bourtzi</name>
	</wpt>
	<wpt lat="36.7112" lon="28.9053">
		<type>WPT</type>
		<name>Boynüz Bükü</name>
	</wpt>
	<wpt lat="36.69" lon="28.0433">
		<type>WPT</type>
		<name>Bozborun</name>
	</wpt>
	<wpt lat="39.8367" lon="26.075">
		<type>WPT</type>
		<name>Bozcaada</name>
	</wpt>
	<wpt lat="36.5545" lon="28.0195">
		<type>WPT</type>
		<name>Bozuk Bükü</name>
	</wpt>
	<wpt lat="44.0733" lon="15.0055">
		<type>WPT</type>
		<name>Brbinj</name>
	</wpt>
	<wpt lat="40.6417" lon="17.9358">
		<type>WPT</type>
		<name>Brindisi - Lega Navale</name>
	</wpt>
	<wpt lat="40.6583" lon="17.9658">
		<type>WPT</type>
		<name>Brindisi - marina Cala delle Sirene</name>
	</wpt>
	<wpt lat="40.6433" lon="17.9508">
		<type>WPT</type>
		<name>Brindisi - Porto interno</name>
	</wpt>
	<wpt lat="37.2858" lon="15.1862">
		<type>WPT</type>
		<name>Brucoli</name>
	</wpt>
	<wpt lat="40.737" lon="9.71033">
		<type>WPT</type>
		<name>Budoni - Porto Ottiolu</name>
	</wpt>
	<wpt lat="42.28" lon="18.8433">
		<type>WPT</type>
		<name>Budva</name>
	</wpt>
	<wpt lat="39.4012" lon="8.39933">
		<type>WPT</type>
		<name>Buggerru</name>
	</wpt>
	<wpt lat="40.88" lon="29.0722">
		<type>WPT</type>
		<name>Burgaz</name>
	</wpt>
	<wpt lat="39.4867" lon="26.928">
		<type>WPT</type>
		<name>Burhaniye</name>
	</wpt>
	<wpt lat="39.8525" lon="-0.0666667">
		<type>WPT</type>
		<name>Burriana</name>
	</wpt>
	<wpt lat="37.34" lon="27.2263">
		<type>WPT</type>
		<name>Büyükturnali</name>
	</wpt>
	<wpt lat="39.768" lon="3.15883">
		<type>WPT</type>
		<name>C'an Picafort</name>
	</wpt>
	<wpt lat="43.2183" lon="3.2345">
		<type>WPT</type>
		<name>Cabanes - Port Chichoulet</name>
	</wpt>
	<wpt lat="43.2067" lon="3.24">
		<type>WPT</type>
		<name>Cabanes-Fleury</name>
	</wpt>
	<wpt lat="37.6295" lon="-0.698333">
		<type>WPT</type>
		<name>Cabo de Palos</name>
	</wpt>
	<wpt lat="37.9067" lon="-0.723333">
		<type>WPT</type>
		<name>Cabo Roig</name>
	</wpt>
	<wpt lat="36.4987" lon="-4.74117">
		<type>WPT</type>
		<name>Cabopino</name>
	</wpt>
	<wpt lat="42.28" lon="3.28333">
		<type>WPT</type>
		<name>Cadaquès</name>
	</wpt>
	<wpt lat="42.7227" lon="9.33317">
		<type>WPT</type>
		<name>Cadarelli</name>
	</wpt>
	<wpt lat="39.2" lon="9.11183">
		<type>WPT</type>
		<name>Cagliari</name>
	</wpt>
	<wpt lat="39.2005" lon="9.12383">
		<type>WPT</type>
		<name>Cagliari - Marina del Sole</name>
	</wpt>
	<wpt lat="39.2022" lon="9.1225">
		<type>WPT</type>
		<name>Cagliari - Marina di Bonaria</name>
	</wpt>
	<wpt lat="39.2107" lon="9.09967">
		<type>WPT</type>
		<name>Cagliari - Motomar Sarda</name>
	</wpt>
	<wpt lat="40.4638" lon="28.0305">
		<type>WPT</type>
		<name>Cakilköy</name>
	</wpt>
	<wpt lat="39.4293" lon="3.2745">
		<type>WPT</type>
		<name>Cala Algar</name>
	</wpt>
	<wpt lat="39.5167" lon="3.31667">
		<type>WPT</type>
		<name>Cala Anguila</name>
	</wpt>
	<wpt lat="39.2872" lon="3.0275">
		<type>WPT</type>
		<name>Cala Antegora</name>
	</wpt>
	<wpt lat="39.3517" lon="3.19683">
		<type>WPT</type>
		<name>Cala Barca</name>
	</wpt>
	<wpt lat="39.6145" lon="3.39367">
		<type>WPT</type>
		<name>Cala Bona</name>
	</wpt>
	<wpt lat="39.1445" lon="2.95833">
		<type>WPT</type>
		<name>Cala Burri</name>
	</wpt>
	<wpt lat="35.5147" lon="12.6277">
		<type>WPT</type>
		<name>Cala Calandra</name>
	</wpt>
	<wpt lat="39.6555" lon="3.44333">
		<type>WPT</type>
		<name>Cala Canyamel</name>
	</wpt>
	<wpt lat="41.6967" lon="2.88">
		<type>WPT</type>
		<name>Cala Canyelles</name>
	</wpt>
	<wpt lat="41.2583" lon="9.41">
		<type>WPT</type>
		<name>Cala Capo Ferrari</name>
	</wpt>
	<wpt lat="39.3588" lon="2.83183">
		<type>WPT</type>
		<name>Cala Carril</name>
	</wpt>
	<wpt lat="38.9535" lon="1.2185">
		<type>WPT</type>
		<name>Cala Codolar</name>
	</wpt>
	<wpt lat="38.9617" lon="1.217">
		<type>WPT</type>
		<name>Cala Comte</name>
	</wpt>
	<wpt lat="41.2158" lon="9.4815">
		<type>WPT</type>
		<name>Cala Coticcio</name>
	</wpt>
	<wpt lat="39.8583" lon="4.14333">
		<type>WPT</type>
		<name>Cala Covas</name>
	</wpt>
	<wpt lat="41.0797" lon="8.33767">
		<type>WPT</type>
		<name>Cala d'Oliva</name>
	</wpt>
	<wpt lat="39.3675" lon="3.23217">
		<type>WPT</type>
		<name>Cala d'Or</name>
	</wpt>
	<wpt lat="39.7608" lon="2.641">
		<type>WPT</type>
		<name>Cala de Deia</name>
	</wpt>
	<wpt lat="39.8538" lon="2.80167">
		<type>WPT</type>
		<name>Cala de Sa Calobra</name>
	</wpt>
	<wpt lat="39.933" lon="3.06">
		<type>WPT</type>
		<name>Cala de San Vicenc</name>
	</wpt>
	<wpt lat="39.3692" lon="3.2315">
		<type>WPT</type>
		<name>Cala de Sas Donas</name>
	</wpt>
	<wpt lat="39.6307" lon="2.42133">
		<type>WPT</type>
		<name>Cala de Ses Ortigues</name>
	</wpt>
	<wpt lat="42.3238" lon="3.30983">
		<type>WPT</type>
		<name>Cala de Tulip</name>
	</wpt>
	<wpt lat="39.7178" lon="2.58633">
		<type>WPT</type>
		<name>Cala de Valldemossa</name>
	</wpt>
	<wpt lat="39.8867" lon="3.185">
		<type>WPT</type>
		<name>Cala del Pinar</name>
	</wpt>
	<wpt lat="40.9417" lon="12.8532">
		<type>WPT</type>
		<name>Cala del Porto</name>
	</wpt>
	<wpt lat="40.9257" lon="12.9647">
		<type>WPT</type>
		<name>Cala dell'Acqua</name>
	</wpt>
	<wpt lat="43.4287" lon="9.91">
		<type>WPT</type>
		<name>Cala dello Scalo</name>
	</wpt>
	<wpt lat="39.2875" lon="3.093">
		<type>WPT</type>
		<name>Cala des Marmol</name>
	</wpt>
	<wpt lat="40.921" lon="12.9625">
		<type>WPT</type>
		<name>Cala di Feola</name>
	</wpt>
	<wpt lat="38.6247" lon="15.0623">
		<type>WPT</type>
		<name>Cala di Junco</name>
	</wpt>
	<wpt lat="36.795" lon="12.0558">
		<type>WPT</type>
		<name>Cala di Levante</name>
	</wpt>
	<wpt lat="42.7597" lon="10.395">
		<type>WPT</type>
		<name>Cala di Mola</name>
	</wpt>
	<wpt lat="36.798" lon="12.047">
		<type>WPT</type>
		<name>Cala di Tramontana</name>
	</wpt>
	<wpt lat="41.1875" lon="9.406">
		<type>WPT</type>
		<name>Cala di Villamarina</name>
	</wpt>
	<wpt lat="41.0818" lon="9.53967">
		<type>WPT</type>
		<name>Cala di Volpe</name>
	</wpt>
	<wpt lat="41.3693" lon="9.267">
		<type>WPT</type>
		<name>Cala di Zeri</name>
	</wpt>
	<wpt lat="39.5158" lon="3.313">
		<type>WPT</type>
		<name>Cala Estany</name>
	</wpt>
	<wpt lat="39.9532" lon="3.178">
		<type>WPT</type>
		<name>Cala Figuera</name>
	</wpt>
	<wpt lat="39.3305" lon="3.17217">
		<type>WPT</type>
		<name>Cala Figuera de Santanyi</name>
	</wpt>
	<wpt lat="39.5312" lon="2.44033">
		<type>WPT</type>
		<name>Cala Fornells</name>
	</wpt>
	<wpt lat="41.8558" lon="3.14467">
		<type>WPT</type>
		<name>Cala Fosca</name>
	</wpt>
	<wpt lat="41.2257" lon="9.37633">
		<type>WPT</type>
		<name>Cala Francese</name>
	</wpt>
	<wpt lat="37.9892" lon="12.3455">
		<type>WPT</type>
		<name>Cala Freda</name>
	</wpt>
	<wpt lat="42.4037" lon="11.2132">
		<type>WPT</type>
		<name>Cala Galera</name>
	</wpt>
	<wpt lat="39.5462" lon="2.69533">
		<type>WPT</type>
		<name>Cala Gamba</name>
	</wpt>
	<wpt lat="41.225" lon="9.45333">
		<type>WPT</type>
		<name>Cala Garibaldi</name>
	</wpt>
	<wpt lat="41.21" lon="9.405">
		<type>WPT</type>
		<name>Cala Gavetta</name>
	</wpt>
	<wpt lat="39.371" lon="3.23467">
		<type>WPT</type>
		<name>Cala Gran</name>
	</wpt>
	<wpt lat="39.3237" lon="3.14167">
		<type>WPT</type>
		<name>Cala Llombards</name>
	</wpt>
	<wpt lat="41.2978" lon="9.34117">
		<type>WPT</type>
		<name>Cala lunga</name>
	</wpt>
	<wpt lat="39.5333" lon="2.3775">
		<type>WPT</type>
		<name>Cala Marmacen</name>
	</wpt>
	<wpt lat="39.6028" lon="3.38917">
		<type>WPT</type>
		<name>Cala Millor</name>
	</wpt>
	<wpt lat="39.3862" lon="3.24917">
		<type>WPT</type>
		<name>Cala Mitjana</name>
	</wpt>
	<wpt lat="39.5725" lon="3.3785">
		<type>WPT</type>
		<name>Cala Moreia</name>
	</wpt>
	<wpt lat="40.9858" lon="9.64583">
		<type>WPT</type>
		<name>Cala Moresca</name>
	</wpt>
	<wpt lat="39.5658" lon="3.3755">
		<type>WPT</type>
		<name>Cala Morlanda</name>
	</wpt>
	<wpt lat="39.4528" lon="3.27883">
		<type>WPT</type>
		<name>Cala Murada</name>
	</wpt>
	<wpt lat="41.305" lon="9.37467">
		<type>WPT</type>
		<name>Cala Muro</name>
	</wpt>
	<wpt lat="39.9387" lon="3.18367">
		<type>WPT</type>
		<name>Cala Murta</name>
	</wpt>
	<wpt lat="41.2413" lon="9.46083">
		<type>WPT</type>
		<name>Cala Napoletana</name>
	</wpt>
	<wpt lat="39.3605" lon="2.83417">
		<type>WPT</type>
		<name>Cala Pi</name>
	</wpt>
	<wpt lat="35.505" lon="12.6258">
		<type>WPT</type>
		<name>Cala Pisana</name>
	</wpt>
	<wpt lat="35.8633" lon="12.85">
		<type>WPT</type>
		<name>Cala Pozzolana di Ponente</name>
	</wpt>
	<wpt lat="40.0533" lon="4.04333">
		<type>WPT</type>
		<name>Cala Pregunda</name>
	</wpt>
	<wpt lat="39.7067" lon="3.46333">
		<type>WPT</type>
		<name>Cala Ratjada</name>
	</wpt>
	<wpt lat="41.06" lon="8.29083">
		<type>WPT</type>
		<name>Cala Reale</name>
	</wpt>
	<wpt lat="40.8012" lon="13.4337">
		<type>WPT</type>
		<name>Cala Rossano</name>
	</wpt>
	<wpt lat="37.55" lon="-1.11667">
		<type>WPT</type>
		<name>Cala Salitrona</name>
	</wpt>
	<wpt lat="40.7403" lon="8.14583">
		<type>WPT</type>
		<name>Cala San Nicolo'</name>
	</wpt>
	<wpt lat="41.2885" lon="9.37333">
		<type>WPT</type>
		<name>Cala Santa Maria</name>
	</wpt>
	<wpt lat="39.915" lon="2.97917">
		<type>WPT</type>
		<name>Cala Sollerich</name>
	</wpt>
	<wpt lat="42.2523" lon="11.1078">
		<type>WPT</type>
		<name>Cala Spalmatoi</name>
	</wpt>
	<wpt lat="41.2495" lon="9.43183">
		<type>WPT</type>
		<name>Cala Spalmatore</name>
	</wpt>
	<wpt lat="41.2023" lon="9.4465">
		<type>WPT</type>
		<name>Cala Stagnali</name>
	</wpt>
	<wpt lat="35.5092" lon="12.5683">
		<type>WPT</type>
		<name>Cala Tabaraca</name>
	</wpt>
	<wpt lat="38.9133" lon="1.46">
		<type>WPT</type>
		<name>Cala Talamanca</name>
	</wpt>
	<wpt lat="39.8412" lon="2.7775">
		<type>WPT</type>
		<name>Cala Tuent</name>
	</wpt>
	<wpt lat="39.4833" lon="3.29167">
		<type>WPT</type>
		<name>Cala Virgili</name>
	</wpt>
	<wpt lat="40.925" lon="0.85">
		<type>WPT</type>
		<name>Calafat</name>
	</wpt>
	<wpt lat="41.5977" lon="8.7865">
		<type>WPT</type>
		<name>Calanque de Conca</name>
	</wpt>
	<wpt lat="43.1652" lon="5.59667">
		<type>WPT</type>
		<name>Calanque de Figuerolles</name>
	</wpt>
	<wpt lat="39.1145" lon="8.37167">
		<type>WPT</type>
		<name>Calasetta</name>
	</wpt>
	<wpt lat="41.4742" lon="9.07283">
		<type>WPT</type>
		<name>Caldarello - Pianottoli</name>
	</wpt>
	<wpt lat="36.7472" lon="-4.07083">
		<type>WPT</type>
		<name>Caleta de Vélez</name>
	</wpt>
	<wpt lat="38.635" lon="0.067">
		<type>WPT</type>
		<name>Calpe</name>
	</wpt>
	<wpt lat="42.5655" lon="8.76">
		<type>WPT</type>
		<name>Calvi</name>
	</wpt>
	<wpt lat="41.06" lon="1.06">
		<type>WPT</type>
		<name>Cambrils</name>
	</wpt>
	<wpt lat="39.9975" lon="15.3813">
		<type>WPT</type>
		<name>Camerota</name>
	</wpt>
	<wpt lat="39.2928" lon="26.6655">
		<type>WPT</type>
		<name>Camlik Koyu</name>
	</wpt>
	<wpt lat="44.3515" lon="9.1505">
		<type>WPT</type>
		<name>Camogli</name>
	</wpt>
	<wpt lat="45.4778" lon="12.3007">
		<type>WPT</type>
		<name>Campalto</name>
	</wpt>
	<wpt lat="36.8272" lon="11.9817">
		<type>WPT</type>
		<name>Campobello</name>
	</wpt>
	<wpt lat="42.3417" lon="9.54267">
		<type>WPT</type>
		<name>Campoloro - port de Taverna</name>
	</wpt>
	<wpt lat="41.6317" lon="8.81667">
		<type>WPT</type>
		<name>Campomoro</name>
	</wpt>
	<wpt lat="36.6758" lon="27.9713">
		<type>WPT</type>
		<name>Canak Limani</name>
	</wpt>
	<wpt lat="40.1542" lon="26.4055">
		<type>WPT</type>
		<name>Canakkale - marina</name>
	</wpt>
	<wpt lat="38.3705" lon="20.6413">
		<type>WPT</type>
		<name>Canal d'Ithaque</name>
	</wpt>
	<wpt lat="38.4633" lon="23.5895">
		<type>WPT</type>
		<name>Canal Halkida</name>
	</wpt>
	<wpt lat="40.197" lon="23.3213">
		<type>WPT</type>
		<name>Canal Potidhaia</name>
	</wpt>
	<wpt lat="38.931" lon="26.9292">
		<type>WPT</type>
		<name>Candarli</name>
	</wpt>
	<wpt lat="42.7033" lon="3.04333">
		<type>WPT</type>
		<name>Canet-en-Roussillon</name>
	</wpt>
	<wpt lat="43.5467" lon="7.02">
		<type>WPT</type>
		<name>Cannes</name>
	</wpt>
	<wpt lat="43.5358" lon="6.95467">
		<type>WPT</type>
		<name>Cannes - port abri du Béal</name>
	</wpt>
	<wpt lat="43.5425" lon="7.03">
		<type>WPT</type>
		<name>Cannes - Port-Canto</name>
	</wpt>
	<wpt lat="43.535" lon="6.94083">
		<type>WPT</type>
		<name>Cannes-Marina</name>
	</wpt>
	<wpt lat="41.1078" lon="9.44433">
		<type>WPT</type>
		<name>Cannigione</name>
	</wpt>
	<wpt lat="41.1297" lon="9.43633">
		<type>WPT</type>
		<name>Cannigione - cala Porteddu</name>
	</wpt>
	<wpt lat="45.6" lon="12.8743">
		<type>WPT</type>
		<name>Caorle - darsena dell'Orologio</name>
	</wpt>
	<wpt lat="38.3033" lon="20.725">
		<type>WPT</type>
		<name>Cap Andreou</name>
	</wpt>
	<wpt lat="37.6493" lon="24.1038">
		<type>WPT</type>
		<name>Cap Angalistros</name>
	</wpt>
	<wpt lat="38.3388" lon="20.4112">
		<type>WPT</type>
		<name>Cap Athéras</name>
	</wpt>
	<wpt lat="43.2667" lon="3.505">
		<type>WPT</type>
		<name>Cap d'Agde</name>
	</wpt>
	<wpt lat="43.7233" lon="7.41333">
		<type>WPT</type>
		<name>Cap d'Ail</name>
	</wpt>
	<wpt lat="39.8883" lon="3.20333">
		<type>WPT</type>
		<name>Cap del Pinar</name>
	</wpt>
	<wpt lat="39.9617" lon="3.21333">
		<type>WPT</type>
		<name>Cap Formentor</name>
	</wpt>
	<wpt lat="43.7482" lon="7.488">
		<type>WPT</type>
		<name>Cap Martin</name>
	</wpt>
	<wpt lat="38.0523" lon="20.7833">
		<type>WPT</type>
		<name>Cap Mounta</name>
	</wpt>
	<wpt lat="36.2062" lon="30.4045">
		<type>WPT</type>
		<name>Cap Taslik Burnu</name>
	</wpt>
	<wpt lat="38.1575" lon="14.7633">
		<type>WPT</type>
		<name>Capo d'Orlando</name>
	</wpt>
	<wpt lat="37.846" lon="15.293">
		<type>WPT</type>
		<name>Capo Taormina</name>
	</wpt>
	<wpt lat="43.0515" lon="9.83933">
		<type>WPT</type>
		<name>Capraia</name>
	</wpt>
	<wpt lat="36.9875" lon="-1.89867">
		<type>WPT</type>
		<name>Carboneras</name>
	</wpt>
	<wpt lat="42.1312" lon="8.5985">
		<type>WPT</type>
		<name>Cargese</name>
	</wpt>
	<wpt lat="39.1443" lon="8.31767">
		<type>WPT</type>
		<name>Carloforte - Marina Sifredi</name>
	</wpt>
	<wpt lat="43.54" lon="3.97833">
		<type>WPT</type>
		<name>Carnon</name>
	</wpt>
	<wpt lat="43.0867" lon="6.0795">
		<type>WPT</type>
		<name>Carqueiranne-les-Salettes</name>
	</wpt>
	<wpt lat="44.0282" lon="10.0445">
		<type>WPT</type>
		<name>Carrara</name>
	</wpt>
	<wpt lat="43.33" lon="5.04333">
		<type>WPT</type>
		<name>Carro</name>
	</wpt>
	<wpt lat="43.3255" lon="5.15533">
		<type>WPT</type>
		<name>Carry-le-Rouet</name>
	</wpt>
	<wpt lat="37.5958" lon="-0.986167">
		<type>WPT</type>
		<name>Cartagena</name>
	</wpt>
	<wpt lat="44.554" lon="12.2857">
		<type>WPT</type>
		<name>Casalborsetti</name>
	</wpt>
	<wpt lat="44.554" lon="12.2743">
		<type>WPT</type>
		<name>Casalborsetti - Porto Reno</name>
	</wpt>
	<wpt lat="40.7512" lon="13.9122">
		<type>WPT</type>
		<name>Casamicciola</name>
	</wpt>
	<wpt lat="40.5527" lon="0.535333">
		<type>WPT</type>
		<name>Cases d'Alcanar</name>
	</wpt>
	<wpt lat="43.2128" lon="5.53333">
		<type>WPT</type>
		<name>Cassis</name>
	</wpt>
	<wpt lat="41.7997" lon="8.72183">
		<type>WPT</type>
		<name>Castagna</name>
	</wpt>
	<wpt lat="40.7147" lon="14.474">
		<type>WPT</type>
		<name>Castellamare di Stabia - marina di Stabia</name>
	</wpt>
	<wpt lat="38.031" lon="12.8832">
		<type>WPT</type>
		<name>Castellammare del Golfo</name>
	</wpt>
	<wpt lat="40.6975" lon="14.4768">
		<type>WPT</type>
		<name>Castellammare di Stabia</name>
	</wpt>
	<wpt lat="40.695" lon="14.4783">
		<type>WPT</type>
		<name>Castellammare di Stabia - Porto Davide</name>
	</wpt>
	<wpt lat="40.7298" lon="13.9617">
		<type>WPT</type>
		<name>Castello</name>
	</wpt>
	<wpt lat="39.9718" lon="0.0178333">
		<type>WPT</type>
		<name>Castellon de la Plana</name>
	</wpt>
	<wpt lat="40.9153" lon="8.70367">
		<type>WPT</type>
		<name>Castelsardo</name>
	</wpt>
	<wpt lat="43.4025" lon="10.4217">
		<type>WPT</type>
		<name>Castiglioncello - Nord</name>
	</wpt>
	<wpt lat="43.3983" lon="10.4267">
		<type>WPT</type>
		<name>Castiglioncello - Sud</name>
	</wpt>
	<wpt lat="42.7597" lon="10.8785">
		<type>WPT</type>
		<name>Castiglione della Pescaia</name>
	</wpt>
	<wpt lat="39.9998" lon="18.429">
		<type>WPT</type>
		<name>Castro Marina</name>
	</wpt>
	<wpt lat="37.5" lon="15.0883">
		<type>WPT</type>
		<name>Catania - Club Nautico</name>
	</wpt>
	<wpt lat="37.486" lon="15.0983">
		<type>WPT</type>
		<name>Catania - CN N.I.C.</name>
	</wpt>
	<wpt lat="37.4858" lon="15.0975">
		<type>WPT</type>
		<name>Catania - Diporto Nautico Etneo</name>
	</wpt>
	<wpt lat="37.486" lon="15.0983">
		<type>WPT</type>
		<name>Catania - Mediterranea YC</name>
	</wpt>
	<wpt lat="37.5135" lon="15.1067">
		<type>WPT</type>
		<name>Catania - Porto Rossi</name>
	</wpt>
	<wpt lat="37.5158" lon="15.113">
		<type>WPT</type>
		<name>Catania - San Giovanni Licuti</name>
	</wpt>
	<wpt lat="38.8233" lon="16.63">
		<type>WPT</type>
		<name>Catanzaro</name>
	</wpt>
	<wpt lat="43.9712" lon="12.751">
		<type>WPT</type>
		<name>Cattolica</name>
	</wpt>
	<wpt lat="43.1738" lon="6.5375">
		<type>WPT</type>
		<name>Cavalaire-sur-Mer</name>
	</wpt>
	<wpt lat="45.4833" lon="12.585">
		<type>WPT</type>
		<name>Cavallino - marina del Cavallino</name>
	</wpt>
	<wpt lat="45.4828" lon="12.5843">
		<type>WPT</type>
		<name>Cavallino - marina del Faro</name>
	</wpt>
	<wpt lat="42.8608" lon="10.4233">
		<type>WPT</type>
		<name>Cavo</name>
	</wpt>
	<wpt lat="36.2995" lon="30.4748">
		<type>WPT</type>
		<name>Cavus Limani</name>
	</wpt>
	<wpt lat="41.9633" lon="34.5108">
		<type>WPT</type>
		<name>Caylioglu - Cayhoglu</name>
	</wpt>
	<wpt lat="43.3015" lon="10.4858">
		<type>WPT</type>
		<name>Cecina</name>
	</wpt>
	<wpt lat="38.0392" lon="14.0353">
		<type>WPT</type>
		<name>Cefalu' Levante - Porto Nuovo (Presidiana)</name>
	</wpt>
	<wpt lat="42.9675" lon="9.3495">
		<type>WPT</type>
		<name>Centuri</name>
	</wpt>
	<wpt lat="42.4422" lon="3.17">
		<type>WPT</type>
		<name>Cerbère</name>
	</wpt>
	<wpt lat="45.3167" lon="13.5667">
		<type>WPT</type>
		<name>Cervar Porat - marina</name>
	</wpt>
	<wpt lat="44.2677" lon="12.357">
		<type>WPT</type>
		<name>Cervia</name>
	</wpt>
	<wpt lat="44.205" lon="12.3993">
		<type>WPT</type>
		<name>Cesenatico</name>
	</wpt>
	<wpt lat="44.2053" lon="12.3972">
		<type>WPT</type>
		<name>Cesenatico - Onda Marina</name>
	</wpt>
	<wpt lat="38.3235" lon="26.346">
		<type>WPT</type>
		<name>Cesme - Setur Altinyunus Marina</name>
	</wpt>
	<wpt lat="38.3233" lon="26.2997">
		<type>WPT</type>
		<name>Cesme Marina</name>
	</wpt>
	<wpt lat="40.6468" lon="14.7045">
		<type>WPT</type>
		<name>Cetara</name>
	</wpt>
	<wpt lat="39.5233" lon="15.9267">
		<type>WPT</type>
		<name>Cetraro</name>
	</wpt>
	<wpt lat="40.7455" lon="14.0073">
		<type>WPT</type>
		<name>Chiaiolella</name>
	</wpt>
	<wpt lat="44.31" lon="9.31667">
		<type>WPT</type>
		<name>Chiavari</name>
	</wpt>
	<wpt lat="45.224" lon="12.283">
		<type>WPT</type>
		<name>Chioggia - Le Saline</name>
	</wpt>
	<wpt lat="38.37" lon="26.1467">
		<type>WPT</type>
		<name>Chios</name>
	</wpt>
	<wpt lat="38.3858" lon="26.1417">
		<type>WPT</type>
		<name>Chios - marina</name>
	</wpt>
	<wpt lat="39.4483" lon="23.1338">
		<type>WPT</type>
		<name>Chorefto</name>
	</wpt>
	<wpt lat="36.7562" lon="27.8798">
		<type>WPT</type>
		<name>Ciftlik</name>
	</wpt>
	<wpt lat="36.7153" lon="28.245">
		<type>WPT</type>
		<name>Ciftlik</name>
	</wpt>
	<wpt lat="36.7148" lon="28.2387">
		<type>WPT</type>
		<name>Ciftlik defne - Alarga Yacht Club</name>
	</wpt>
	<wpt lat="36.7158" lon="28.2403">
		<type>WPT</type>
		<name>Ciftlik defne - Azmak jetty</name>
	</wpt>
	<wpt lat="40.6517" lon="29.13">
		<type>WPT</type>
		<name>Cinarcik</name>
	</wpt>
	<wpt lat="36.3667" lon="30.5">
		<type>WPT</type>
		<name>Cineviz</name>
	</wpt>
	<wpt lat="43.975" lon="10.1407">
		<type>WPT</type>
		<name>Cinquale - Montignoso - Porto Cinquale</name>
	</wpt>
	<wpt lat="36.3983" lon="30.4783">
		<type>WPT</type>
		<name>Ciralli Limani</name>
	</wpt>
	<wpt lat="39.3792" lon="17.1413">
		<type>WPT</type>
		<name>Ciro'Marina</name>
	</wpt>
	<wpt lat="39.9933" lon="3.82">
		<type>WPT</type>
		<name>Ciutadella</name>
	</wpt>
	<wpt lat="43.3167" lon="13.7348">
		<type>WPT</type>
		<name>Civitanova Marche</name>
	</wpt>
	<wpt lat="42.0995" lon="11.8167">
		<type>WPT</type>
		<name>Civitavecchia - Riva di Traiano</name>
	</wpt>
	<wpt lat="43.2688" lon="6.59">
		<type>WPT</type>
		<name>Cogolin - Marines de</name>
	</wpt>
	<wpt lat="43.2667" lon="6.57667">
		<type>WPT</type>
		<name>Cogolin - Port Cogolin</name>
	</wpt>
	<wpt lat="37.0017" lon="27.7883">
		<type>WPT</type>
		<name>Cökertme</name>
	</wpt>
	<wpt lat="38.4453" lon="26.398">
		<type>WPT</type>
		<name>Colak Burnu</name>
	</wpt>
	<wpt lat="42.4052" lon="3.15767">
		<type>WPT</type>
		<name>Colera</name>
	</wpt>
	<wpt lat="39.8638" lon="3.19033">
		<type>WPT</type>
		<name>Coll Baix</name>
	</wpt>
	<wpt lat="42.5272" lon="3.09">
		<type>WPT</type>
		<name>Collioure</name>
	</wpt>
	<wpt lat="39.7373" lon="3.27167">
		<type>WPT</type>
		<name>Colonia de Sant Pere</name>
	</wpt>
	<wpt lat="39.3088" lon="3.00833">
		<type>WPT</type>
		<name>Colonia Sant Jordi</name>
	</wpt>
	<wpt lat="39.3157" lon="3">
		<type>WPT</type>
		<name>Colonia Sant Jordi - -1</name>
	</wpt>
	<wpt lat="41.175" lon="1.52783">
		<type>WPT</type>
		<name>Coma-Ruga</name>
	</wpt>
	<wpt lat="43.359" lon="5.29783">
		<type>WPT</type>
		<name>Corbières</name>
	</wpt>
	<wpt lat="37.9417" lon="22.9367">
		<type>WPT</type>
		<name>Corinthe</name>
	</wpt>
	<wpt lat="40.7587" lon="14.0315">
		<type>WPT</type>
		<name>Corricella</name>
	</wpt>
	<wpt lat="45.5372" lon="12.7237">
		<type>WPT</type>
		<name>Cortellazzo-Jesolo</name>
	</wpt>
	<wpt lat="38.3558" lon="-0.438333">
		<type>WPT</type>
		<name>Costa Blanca</name>
	</wpt>
	<wpt lat="38.6442" lon="20.7667">
		<type>WPT</type>
		<name>Côte Sud</name>
	</wpt>
	<wpt lat="44.9492" lon="14.4137">
		<type>WPT</type>
		<name>Cres</name>
	</wpt>
	<wpt lat="39.077" lon="17.1363">
		<type>WPT</type>
		<name>Crotone - porto vecchio</name>
	</wpt>
	<wpt lat="37.3475" lon="27.2083">
		<type>WPT</type>
		<name>Cukurcuk</name>
	</wpt>
	<wpt lat="39.1583" lon="-0.255">
		<type>WPT</type>
		<name>Cullera</name>
	</wpt>
	<wpt lat="36.05" lon="14.3167">
		<type>WPT</type>
		<name>Dahlet Qorrot</name>
	</wpt>
	<wpt lat="45.357" lon="13.5472">
		<type>WPT</type>
		<name>Dalja</name>
	</wpt>
	<wpt lat="38.355" lon="26.315">
		<type>WPT</type>
		<name>Dalyan Koy</name>
	</wpt>
	<wpt lat="39.4072" lon="23.18">
		<type>WPT</type>
		<name>Damouchari</name>
	</wpt>
	<wpt lat="40.2153" lon="24.2205">
		<type>WPT</type>
		<name>Daphni</name>
	</wpt>
	<wpt lat="37.4" lon="23.2792">
		<type>WPT</type>
		<name>Dardiza</name>
	</wpt>
	<wpt lat="38.4203" lon="26.1358">
		<type>WPT</type>
		<name>Daskalopetra</name>
	</wpt>
	<wpt lat="36.7205" lon="27.6888">
		<type>WPT</type>
		<name>Datça</name>
	</wpt>
	<wpt lat="33.9495" lon="35.589">
		<type>WPT</type>
		<name>Dbayeh - marina Joseph Khoury</name>
	</wpt>
	<wpt lat="36.6762" lon="28.8613">
		<type>WPT</type>
		<name>Deep bay</name>
	</wpt>
	<wpt lat="37.8983" lon="-0.747333">
		<type>WPT</type>
		<name>Dehesa de Campoamor</name>
	</wpt>
	<wpt lat="36.6683" lon="29.0337">
		<type>WPT</type>
		<name>Deliklitas adasi</name>
	</wpt>
	<wpt lat="38.8495" lon="0.128">
		<type>WPT</type>
		<name>Denia</name>
	</wpt>
	<wpt lat="36.9172" lon="28.1675">
		<type>WPT</type>
		<name>Dergirmen Köyü</name>
	</wpt>
	<wpt lat="38.205" lon="26.68">
		<type>WPT</type>
		<name>Dermircili Limani</name>
	</wpt>
	<wpt lat="38.2587" lon="15.6693">
		<type>WPT</type>
		<name>Détroit de Messine</name>
	</wpt>
	<wpt lat="36.9717" lon="25.02">
		<type>WPT</type>
		<name>Dhespotico</name>
	</wpt>
	<wpt lat="37.805" lon="23.2533">
		<type>WPT</type>
		<name>Dhiaporioi nisis</name>
	</wpt>
	<wpt lat="35.7555" lon="27.2137">
		<type>WPT</type>
		<name>Diafani</name>
	</wpt>
	<wpt lat="38.1967" lon="22.2027">
		<type>WPT</type>
		<name>Diakoftou</name>
	</wpt>
	<wpt lat="39.6758" lon="15.8167">
		<type>WPT</type>
		<name>Diamante</name>
	</wpt>
	<wpt lat="43.9073" lon="8.0865">
		<type>WPT</type>
		<name>Diano Marina</name>
	</wpt>
	<wpt lat="37.3328" lon="27.2717">
		<type>WPT</type>
		<name>Didim marina</name>
	</wpt>
	<wpt lat="38.342" lon="23.6762">
		<type>WPT</type>
		<name>Dilesi</name>
	</wpt>
	<wpt lat="37.4" lon="25.2638">
		<type>WPT</type>
		<name>Dilos</name>
	</wpt>
	<wpt lat="36.6417" lon="22.3758">
		<type>WPT</type>
		<name>Diros</name>
	</wpt>
	<wpt lat="36.6942" lon="27.9792">
		<type>WPT</type>
		<name>Dirsek Köyü</name>
	</wpt>
	<wpt lat="36.72" lon="28.6475">
		<type>WPT</type>
		<name>Disibilmez Buku</name>
	</wpt>
	<wpt lat="36.6617" lon="28.9117">
		<type>WPT</type>
		<name>Domuz &amp; Tersane Adasi</name>
	</wpt>
	<wpt lat="42.4833" lon="18.65">
		<type>WPT</type>
		<name>Donji Morinj</name>
	</wpt>
	<wpt lat="43.1667" lon="10.5333">
		<type>WPT</type>
		<name>Donoratico Castagneto Carducci - marina di Castagneto</name>
	</wpt>
	<wpt lat="40.2802" lon="9.63933">
		<type>WPT</type>
		<name>Dorgali - cala Gonone</name>
	</wpt>
	<wpt lat="37.657" lon="-0.725333">
		<type>WPT</type>
		<name>Dos Mares</name>
	</wpt>
	<wpt lat="42.6703" lon="18.122">
		<type>WPT</type>
		<name>Dubrovnik - marina Miho Pracat</name>
	</wpt>
	<wpt lat="45.7718" lon="13.6">
		<type>WPT</type>
		<name>Duino</name>
	</wpt>
	<wpt lat="41.3" lon="19.45">
		<type>WPT</type>
		<name>Durres</name>
	</wpt>
	<wpt lat="36.0463" lon="14.192">
		<type>WPT</type>
		<name>Dwejra Bay</name>
	</wpt>
	<wpt lat="36.6603" lon="27.4922">
		<type>WPT</type>
		<name>Echo bay</name>
	</wpt>
	<wpt lat="39.5393" lon="24.9858">
		<type>WPT</type>
		<name>Efstratios</name>
	</wpt>
	<wpt lat="37.743" lon="23.425">
		<type>WPT</type>
		<name>Egina</name>
	</wpt>
	<wpt lat="38.543" lon="26.3763">
		<type>WPT</type>
		<name>Egri Limani</name>
	</wpt>
	<wpt lat="36.8272" lon="28.5548">
		<type>WPT</type>
		<name>Ekincik - My Marina</name>
	</wpt>
	<wpt lat="34.73" lon="11.2933">
		<type>WPT</type>
		<name>El Attaya</name>
	</wpt>
	<wpt lat="41.555" lon="2.507">
		<type>WPT</type>
		<name>El Balis</name>
	</wpt>
	<wpt lat="39.3142" lon="3.12333">
		<type>WPT</type>
		<name>El Calo des Moro</name>
	</wpt>
	<wpt lat="38.4225" lon="-0.383333">
		<type>WPT</type>
		<name>El Campello</name>
	</wpt>
	<wpt lat="36.7142" lon="-4.347">
		<type>WPT</type>
		<name>El Candado</name>
	</wpt>
	<wpt lat="36.9005" lon="8.4395">
		<type>WPT</type>
		<name>El Kala</name>
	</wpt>
	<wpt lat="38.6283" lon="-0.0055">
		<type>WPT</type>
		<name>El Mascarat</name>
	</wpt>
	<wpt lat="39.2733" lon="-0.27">
		<type>WPT</type>
		<name>El Perello</name>
	</wpt>
	<wpt lat="39.49" lon="2.475">
		<type>WPT</type>
		<name>El Toro - Port Adriano</name>
	</wpt>
	<wpt lat="36.5083" lon="22.9833">
		<type>WPT</type>
		<name>Elafonisos</name>
	</wpt>
	<wpt lat="36.7533" lon="22.8">
		<type>WPT</type>
		<name>Elaia</name>
	</wpt>
	<wpt lat="40.847" lon="24.3175">
		<type>WPT</type>
		<name>Eleftheres</name>
	</wpt>
	<wpt lat="38.0338" lon="23.5453">
		<type>WPT</type>
		<name>Elevsis  Elefsina</name>
	</wpt>
	<wpt lat="35.2625" lon="25.7237">
		<type>WPT</type>
		<name>Elounda</name>
	</wpt>
	<wpt lat="38.1843" lon="26.0317">
		<type>WPT</type>
		<name>Emborios</name>
	</wpt>
	<wpt lat="35.4167" lon="26.9333">
		<type>WPT</type>
		<name>Emporeios</name>
	</wpt>
	<wpt lat="37.0453" lon="26.9278">
		<type>WPT</type>
		<name>Emporio</name>
	</wpt>
	<wpt lat="42.2447" lon="3.13667">
		<type>WPT</type>
		<name>Empuriabrava</name>
	</wpt>
	<wpt lat="43.1992" lon="5.505">
		<type>WPT</type>
		<name>En-Vau</name>
	</wpt>
	<wpt lat="37.6373" lon="23.1593">
		<type>WPT</type>
		<name>Epidaure - Port Palaia Epidavros</name>
	</wpt>
	<wpt lat="45.5393" lon="12.7572">
		<type>WPT</type>
		<name>Eraclea Mare - Mariclea Club</name>
	</wpt>
	<wpt lat="38.3583" lon="22.2333">
		<type>WPT</type>
		<name>Erathinis</name>
	</wpt>
	<wpt lat="42.7733" lon="9.48">
		<type>WPT</type>
		<name>Erbalunga</name>
	</wpt>
	<wpt lat="40.3917" lon="27.7888">
		<type>WPT</type>
		<name>Erdek</name>
	</wpt>
	<wpt lat="40.9727" lon="27.9633">
		<type>WPT</type>
		<name>Ereglisi</name>
	</wpt>
	<wpt lat="39.1222" lon="25.9297">
		<type>WPT</type>
		<name>Eressou</name>
	</wpt>
	<wpt lat="38.3833" lon="23.7917">
		<type>WPT</type>
		<name>Eretria</name>
	</wpt>
	<wpt lat="39.8772" lon="19.5792">
		<type>WPT</type>
		<name>Erikoussa</name>
	</wpt>
	<wpt lat="37.386" lon="23.25">
		<type>WPT</type>
		<name>Ermioni</name>
	</wpt>
	<wpt lat="37.4347" lon="24.9483">
		<type>WPT</type>
		<name>Ermoupolis</name>
	</wpt>
	<wpt lat="37.4308" lon="24.94">
		<type>WPT</type>
		<name>Ermoupolis - marina Lazaretta</name>
	</wpt>
	<wpt lat="37.4358" lon="24.9378">
		<type>WPT</type>
		<name>Ermoupolis - marina Tarsanas</name>
	</wpt>
	<wpt lat="39.7737" lon="3.333">
		<type>WPT</type>
		<name>Es Calo</name>
	</wpt>
	<wpt lat="39.3405" lon="2.9755">
		<type>WPT</type>
		<name>Es Trenc</name>
	</wpt>
	<wpt lat="40.6155" lon="28.9505">
		<type>WPT</type>
		<name>Esenköy</name>
	</wpt>
	<wpt lat="38.67" lon="26.745">
		<type>WPT</type>
		<name>Eskiföça</name>
	</wpt>
	<wpt lat="38.7758" lon="1.42583">
		<type>WPT</type>
		<name>Espalmador</name>
	</wpt>
	<wpt lat="36.4113" lon="-5.15967">
		<type>WPT</type>
		<name>Estepona</name>
	</wpt>
	<wpt lat="38.3008" lon="20.6012">
		<type>WPT</type>
		<name>Eufimia</name>
	</wpt>
	<wpt lat="37.6333" lon="26.1817">
		<type>WPT</type>
		<name>Evdhilos</name>
	</wpt>
	<wpt lat="43.7172" lon="7.35333">
		<type>WPT</type>
		<name>Eze-sur-Mer - Sylva Maris</name>
	</wpt>
	<wpt lat="36.3638" lon="27.9763">
		<type>WPT</type>
		<name>Fanes</name>
	</wpt>
	<wpt lat="43.8563" lon="13.0162">
		<type>WPT</type>
		<name>Fano - marina dei Cesari</name>
	</wpt>
	<wpt lat="43.8557" lon="13.0163">
		<type>WPT</type>
		<name>Fano - porto canale</name>
	</wpt>
	<wpt lat="39.5583" lon="-0.283333">
		<type>WPT</type>
		<name>Farnals - Pobla Marina</name>
	</wpt>
	<wpt lat="36.938" lon="24.7495">
		<type>WPT</type>
		<name>Faros</name>
	</wpt>
	<wpt lat="36.6412" lon="28.8645">
		<type>WPT</type>
		<name>Fathom Cove</name>
	</wpt>
	<wpt lat="37.9325" lon="12.324">
		<type>WPT</type>
		<name>Favignana</name>
	</wpt>
	<wpt lat="40.5933" lon="8.28833">
		<type>WPT</type>
		<name>Fertilia</name>
	</wpt>
	<wpt lat="36.6223" lon="29.1">
		<type>WPT</type>
		<name>Fethiye - ECE Saray Marina</name>
	</wpt>
	<wpt lat="36.6225" lon="29.0988">
		<type>WPT</type>
		<name>Fethiye - Yacht Plaza marina</name>
	</wpt>
	<wpt lat="36.6213" lon="29.0928">
		<type>WPT</type>
		<name>Fethiye - Yes Marina</name>
	</wpt>
	<wpt lat="36.6415" lon="29.1083">
		<type>WPT</type>
		<name>Fethiye Limani</name>
	</wpt>
	<wpt lat="37.1863" lon="27.5353">
		<type>WPT</type>
		<name>Feza</name>
	</wpt>
	<wpt lat="42.252" lon="8.62617">
		<type>WPT</type>
		<name>Ficajola</name>
	</wpt>
	<wpt lat="36.9" lon="24.7">
		<type>WPT</type>
		<name>Fikiadha</name>
	</wpt>
	<wpt lat="38.5613" lon="14.5833">
		<type>WPT</type>
		<name>Filicudi</name>
	</wpt>
	<wpt lat="38.5575" lon="14.5667">
		<type>WPT</type>
		<name>Filicudi - Pecorini a Mare</name>
	</wpt>
	<wpt lat="44.1755" lon="8.3735">
		<type>WPT</type>
		<name>Finale Ligure</name>
	</wpt>
	<wpt lat="37.3833" lon="24.8667">
		<type>WPT</type>
		<name>Finikas</name>
	</wpt>
	<wpt lat="36.295" lon="30.153">
		<type>WPT</type>
		<name>Finike</name>
	</wpt>
	<wpt lat="36.455" lon="25.385">
		<type>WPT</type>
		<name>Finikia</name>
	</wpt>
	<wpt lat="36.805" lon="21.8083">
		<type>WPT</type>
		<name>Finikountas</name>
	</wpt>
	<wpt lat="38.4617" lon="20.5783">
		<type>WPT</type>
		<name>Fiskardo</name>
	</wpt>
	<wpt lat="40.4772" lon="28.881">
		<type>WPT</type>
		<name>Fistikli</name>
	</wpt>
	<wpt lat="41.74" lon="12.2333">
		<type>WPT</type>
		<name>Fiumara Grande</name>
	</wpt>
	<wpt lat="41.7455" lon="12.2573">
		<type>WPT</type>
		<name>Fiumara Grande - Fiumicino Isola Sacra – Darsena Netter</name>
	</wpt>
	<wpt lat="41.7387" lon="12.235">
		<type>WPT</type>
		<name>Fiumara Grande - Fiumicino Isola Sacra – Porto Romano</name>
	</wpt>
	<wpt lat="41.7697" lon="12.227">
		<type>WPT</type>
		<name>Fiumicino - Darsena Traiano</name>
	</wpt>
	<wpt lat="41.7705" lon="12.2185">
		<type>WPT</type>
		<name>Fiumicino - Porto Canale</name>
	</wpt>
	<wpt lat="41.9222" lon="15.796">
		<type>WPT</type>
		<name>Foce di Varano</name>
	</wpt>
	<wpt lat="35.4895" lon="27.1167">
		<type>WPT</type>
		<name>Foiniki</name>
	</wpt>
	<wpt lat="37.7175" lon="23.9265">
		<type>WPT</type>
		<name>Fokaia</name>
	</wpt>
	<wpt lat="42.922" lon="10.7533">
		<type>WPT</type>
		<name>Follonica</name>
	</wpt>
	<wpt lat="35.9072" lon="14.3395">
		<type>WPT</type>
		<name>Fomm ir-Rih</name>
	</wpt>
	<wpt lat="36.9582" lon="15.212">
		<type>WPT</type>
		<name>Fontane Bianche</name>
	</wpt>
	<wpt lat="40.7397" lon="13.86">
		<type>WPT</type>
		<name>Forio</name>
	</wpt>
	<wpt lat="41.25" lon="13.6">
		<type>WPT</type>
		<name>Formia - Caposele</name>
	</wpt>
	<wpt lat="41.2542" lon="13.6167">
		<type>WPT</type>
		<name>Formia - Porto Nuovo</name>
	</wpt>
	<wpt lat="40.9863" lon="8.2325">
		<type>WPT</type>
		<name>Fornelli</name>
	</wpt>
	<wpt lat="40.0533" lon="4.13333">
		<type>WPT</type>
		<name>Fornells</name>
	</wpt>
	<wpt lat="43.5238" lon="7.04167">
		<type>WPT</type>
		<name>fort Sainte-Marguerite</name>
	</wpt>
	<wpt lat="43.4267" lon="4.9375">
		<type>WPT</type>
		<name>Fos-sur-mer - St-Gervais</name>
	</wpt>
	<wpt lat="42.2388" lon="14.5385">
		<type>WPT</type>
		<name>Fossacesia - marina del Sole</name>
	</wpt>
	<wpt lat="37.5768" lon="26.4772">
		<type>WPT</type>
		<name>Fournoi</name>
	</wpt>
	<wpt lat="43.42" lon="6.75167">
		<type>WPT</type>
		<name>Fréjus - Port Fréjus</name>
	</wpt>
	<wpt lat="38.4597" lon="20.6653">
		<type>WPT</type>
		<name>Frikes</name>
	</wpt>
	<wpt lat="43.4295" lon="3.775">
		<type>WPT</type>
		<name>Frontignan</name>
	</wpt>
	<wpt lat="40.9052" lon="12.9632">
		<type>WPT</type>
		<name>Frontone</name>
	</wpt>
	<wpt lat="35.4205" lon="26.925">
		<type>WPT</type>
		<name>Fry</name>
	</wpt>
	<wpt lat="36.5442" lon="-4.61283">
		<type>WPT</type>
		<name>Fuengirola</name>
	</wpt>
	<wpt lat="38.1267" lon="15.1117">
		<type>WPT</type>
		<name>Furnari - marina di Portorosa</name>
	</wpt>
	<wpt lat="45.4217" lon="12.2588">
		<type>WPT</type>
		<name>Fusina</name>
	</wpt>
	<wpt lat="33.8933" lon="10.1167">
		<type>WPT</type>
		<name>Gabes</name>
	</wpt>
	<wpt lat="43.9658" lon="12.7842">
		<type>WPT</type>
		<name>Gabicce Mare - Baia Vallugola</name>
	</wpt>
	<wpt lat="41.2153" lon="13.5748">
		<type>WPT</type>
		<name>Gaeta - Flavio Gioia</name>
	</wpt>
	<wpt lat="41.2095" lon="13.5897">
		<type>WPT</type>
		<name>Gaeta - Santa Maria</name>
	</wpt>
	<wpt lat="38.3772" lon="22.3895">
		<type>WPT</type>
		<name>Galaxidi</name>
	</wpt>
	<wpt lat="40.0597" lon="17.991">
		<type>WPT</type>
		<name>Gallipoli - darsena Fontanelle</name>
	</wpt>
	<wpt lat="40.067" lon="17.9997">
		<type>WPT</type>
		<name>Gallipoli - Porto Gaio</name>
	</wpt>
	<wpt lat="40.0525" lon="17.9802">
		<type>WPT</type>
		<name>Gallipoli - Seno del Canneto</name>
	</wpt>
	<wpt lat="38.993" lon="-0.15">
		<type>WPT</type>
		<name>Gandia</name>
	</wpt>
	<wpt lat="41.2483" lon="1.9">
		<type>WPT</type>
		<name>Garraf</name>
	</wpt>
	<wpt lat="37.1775" lon="-1.81667">
		<type>WPT</type>
		<name>Garrucha</name>
	</wpt>
	<wpt lat="39.2833" lon="25.9787">
		<type>WPT</type>
		<name>Gavathas</name>
	</wpt>
	<wpt lat="37.8828" lon="24.732">
		<type>WPT</type>
		<name>Gavrio</name>
	</wpt>
	<wpt lat="36.2667" lon="32.2733">
		<type>WPT</type>
		<name>Gazipasa</name>
	</wpt>
	<wpt lat="36.0292" lon="14.33">
		<type>WPT</type>
		<name>Gebla tal-Halfa</name>
	</wpt>
	<wpt lat="37.0615" lon="14.2305">
		<type>WPT</type>
		<name>Gela</name>
	</wpt>
	<wpt lat="40.4027" lon="26.6693">
		<type>WPT</type>
		<name>Gelibolu</name>
	</wpt>
	<wpt lat="37" lon="28.2333">
		<type>WPT</type>
		<name>Gelibolu Bükü</name>
	</wpt>
	<wpt lat="36.5555" lon="29.0695">
		<type>WPT</type>
		<name>Gemiler</name>
	</wpt>
	<wpt lat="40.4317" lon="29.1505">
		<type>WPT</type>
		<name>Gemlik</name>
	</wpt>
	<wpt lat="40.4317" lon="29.0833">
		<type>WPT</type>
		<name>Gemlik Körfezi</name>
	</wpt>
	<wpt lat="44.3987" lon="8.92883">
		<type>WPT</type>
		<name>Genova - Duca degli Abruzzi</name>
	</wpt>
	<wpt lat="44.418" lon="8.83617">
		<type>WPT</type>
		<name>Genova - Marina Aeroporto</name>
	</wpt>
	<wpt lat="44.389" lon="8.94033">
		<type>WPT</type>
		<name>Genova - marina Fiera di Genova</name>
	</wpt>
	<wpt lat="44.4043" lon="8.91967">
		<type>WPT</type>
		<name>Genova - Molo Vecchio</name>
	</wpt>
	<wpt lat="44.3825" lon="9.03267">
		<type>WPT</type>
		<name>Genova - Nervi</name>
	</wpt>
	<wpt lat="44.4103" lon="8.92167">
		<type>WPT</type>
		<name>Genova - Porto Antico</name>
	</wpt>
	<wpt lat="44.4155" lon="8.84133">
		<type>WPT</type>
		<name>Genova - Sestri Ponente</name>
	</wpt>
	<wpt lat="37.6388" lon="23.3942">
		<type>WPT</type>
		<name>Georgiou</name>
	</wpt>
	<wpt lat="36.7023" lon="28.226">
		<type>WPT</type>
		<name>Gerbekse Köyü</name>
	</wpt>
	<wpt lat="36.7087" lon="28.0395">
		<type>WPT</type>
		<name>Germe Köyü</name>
	</wpt>
	<wpt lat="38.3358" lon="26.4163">
		<type>WPT</type>
		<name>Germiyan limani</name>
	</wpt>
	<wpt lat="35.9242" lon="14.3392">
		<type>WPT</type>
		<name>Ghajn Tuffieha</name>
	</wpt>
	<wpt lat="36.025" lon="14.3028">
		<type>WPT</type>
		<name>Ghajnsielem</name>
	</wpt>
	<wpt lat="37.1655" lon="10.192">
		<type>WPT</type>
		<name>Ghar el Melh</name>
	</wpt>
	<wpt lat="35.8272" lon="14.425">
		<type>WPT</type>
		<name>Ghar Lapsi</name>
	</wpt>
	<wpt lat="36.4778" lon="22.4">
		<type>WPT</type>
		<name>Gherolimenas</name>
	</wpt>
	<wpt lat="36.9735" lon="25.4045">
		<type>WPT</type>
		<name>Giannis</name>
	</wpt>
	<wpt lat="37.8288" lon="15.2767">
		<type>WPT</type>
		<name>Giardini Naxos</name>
	</wpt>
	<wpt lat="36.1478" lon="-5.35467">
		<type>WPT</type>
		<name>Gibraltar - Sheppard's Marina</name>
	</wpt>
	<wpt lat="41.8613" lon="32.8583">
		<type>WPT</type>
		<name>Gideros Limani</name>
	</wpt>
	<wpt lat="42.361" lon="10.9208">
		<type>WPT</type>
		<name>Giglio</name>
	</wpt>
	<wpt lat="41.2583" lon="1.925">
		<type>WPT</type>
		<name>Ginesta</name>
	</wpt>
	<wpt lat="38.4433" lon="15.8923">
		<type>WPT</type>
		<name>Gioia Tauro</name>
	</wpt>
	<wpt lat="42.8665" lon="9.339">
		<type>WPT</type>
		<name>Giottani</name>
	</wpt>
	<wpt lat="41.1847" lon="16.6733">
		<type>WPT</type>
		<name>Giovinazzo</name>
	</wpt>
	<wpt lat="35.3427" lon="33.3383">
		<type>WPT</type>
		<name>Girne - Delta Marina</name>
	</wpt>
	<wpt lat="42.345" lon="8.61533">
		<type>WPT</type>
		<name>Girolata</name>
	</wpt>
	<wpt lat="42.7547" lon="13.9782">
		<type>WPT</type>
		<name>Giulianova</name>
	</wpt>
	<wpt lat="39.984" lon="23.6598">
		<type>WPT</type>
		<name>Glarokavos</name>
	</wpt>
	<wpt lat="38.3167" lon="21.1138">
		<type>WPT</type>
		<name>Glikha</name>
	</wpt>
	<wpt lat="38.95" lon="22.9667">
		<type>WPT</type>
		<name>Glyfa</name>
	</wpt>
	<wpt lat="35.9225" lon="14.341">
		<type>WPT</type>
		<name>Gnejna Bay</name>
	</wpt>
	<wpt lat="36.752" lon="28.9395">
		<type>WPT</type>
		<name>Göçek - Belediye marina</name>
	</wpt>
	<wpt lat="36.7495" lon="28.9262">
		<type>WPT</type>
		<name>Göçek - Club Marina</name>
	</wpt>
	<wpt lat="36.7547" lon="28.9322">
		<type>WPT</type>
		<name>Göçek - Marin Turk</name>
	</wpt>
	<wpt lat="36.7368" lon="28.9295">
		<type>WPT</type>
		<name>Göçek - Marinturk Göçek Exclusive</name>
	</wpt>
	<wpt lat="36.7487" lon="28.9403">
		<type>WPT</type>
		<name>Göçek - Port Göçek marina</name>
	</wpt>
	<wpt lat="36.7537" lon="28.9372">
		<type>WPT</type>
		<name>Göçek - Skopea marina </name>
	</wpt>
	<wpt lat="36.7482" lon="28.9355">
		<type>WPT</type>
		<name>Göçek Limani</name>
	</wpt>
	<wpt lat="37.2467" lon="27.5375">
		<type>WPT</type>
		<name>Gök Limani</name>
	</wpt>
	<wpt lat="36.86" lon="28.0242">
		<type>WPT</type>
		<name>Gökagaç</name>
	</wpt>
	<wpt lat="36.7945" lon="28.0292">
		<type>WPT</type>
		<name>Gökçeler Bükü</name>
	</wpt>
	<wpt lat="36.2112" lon="29.8917">
		<type>WPT</type>
		<name>Gökkaya limani</name>
	</wpt>
	<wpt lat="38.1355" lon="26.6147">
		<type>WPT</type>
		<name>Gökkovar Limani</name>
	</wpt>
	<wpt lat="35.933" lon="14.3418">
		<type>WPT</type>
		<name>Golden Bay</name>
	</wpt>
	<wpt lat="42.804" lon="10.266">
		<type>WPT</type>
		<name>golfe de Biodola</name>
	</wpt>
	<wpt lat="41.0283" lon="9.525">
		<type>WPT</type>
		<name>golfe de Cugnana</name>
	</wpt>
	<wpt lat="42.4233" lon="8.65333">
		<type>WPT</type>
		<name>golfe de Galèria</name>
	</wpt>
	<wpt lat="42.5683" lon="8.73167">
		<type>WPT</type>
		<name>golfe de La Revellata</name>
	</wpt>
	<wpt lat="41.6767" lon="9.38133">
		<type>WPT</type>
		<name>golfe de Pinarellu</name>
	</wpt>
	<wpt lat="41.5267" lon="9.28">
		<type>WPT</type>
		<name>golfe de Santa Giulia</name>
	</wpt>
	<wpt lat="41.41" lon="9.22667">
		<type>WPT</type>
		<name>golfe de Santa Manza</name>
	</wpt>
	<wpt lat="42.7597" lon="10.322">
		<type>WPT</type>
		<name>golfe de Stella</name>
	</wpt>
	<wpt lat="42.7565" lon="10.3045">
		<type>WPT</type>
		<name>golfe di Lacona</name>
	</wpt>
	<wpt lat="42.7895" lon="10.242">
		<type>WPT</type>
		<name>golfe di Procchio</name>
	</wpt>
	<wpt lat="43.565" lon="7.07667">
		<type>WPT</type>
		<name>Golfe-Juan</name>
	</wpt>
	<wpt lat="43.5655" lon="7.08">
		<type>WPT</type>
		<name>Golfe-Juan - Camille Rayon</name>
	</wpt>
	<wpt lat="40.9945" lon="9.604">
		<type>WPT</type>
		<name>Golfo Aranci - Baia Caddinas</name>
	</wpt>
	<wpt lat="40.745" lon="13.9978">
		<type>WPT</type>
		<name>golfo Di Genito</name>
	</wpt>
	<wpt lat="36.755" lon="27.9483">
		<type>WPT</type>
		<name>Gönlüçek Bükü</name>
	</wpt>
	<wpt lat="44.8403" lon="12.2903">
		<type>WPT</type>
		<name>Goro</name>
	</wpt>
	<wpt lat="39.6502" lon="19.8502">
		<type>WPT</type>
		<name>Gouvia - marina</name>
	</wpt>
	<wpt lat="45.6827" lon="13.3805">
		<type>WPT</type>
		<name>Grado</name>
	</wpt>
	<wpt lat="45.6845" lon="13.3848">
		<type>WPT</type>
		<name>Grado - marina San Marco</name>
	</wpt>
	<wpt lat="45.6817" lon="13.3775">
		<type>WPT</type>
		<name>Grado - porto San Vito</name>
	</wpt>
	<wpt lat="45.7072" lon="13.4678">
		<type>WPT</type>
		<name>Grado - Tenuta Primero</name>
	</wpt>
	<wpt lat="40.215" lon="19.4728">
		<type>WPT</type>
		<name>Grana bay</name>
	</wpt>
	<wpt lat="43.2778" lon="3.4425">
		<type>WPT</type>
		<name>Grau d'Agde - Rives de l'Hérault</name>
	</wpt>
	<wpt lat="43.5342" lon="4.13">
		<type>WPT</type>
		<name>Grau-du-Roi</name>
	</wpt>
	<wpt lat="45.7067" lon="13.7128">
		<type>WPT</type>
		<name>Grignano</name>
	</wpt>
	<wpt lat="42.7137" lon="10.9852">
		<type>WPT</type>
		<name>Grosseto - marina di San Rocco</name>
	</wpt>
	<wpt lat="43.1117" lon="3.13333">
		<type>WPT</type>
		<name>Gruissan</name>
	</wpt>
	<wpt lat="43.0953" lon="3.11667">
		<type>WPT</type>
		<name>Gruissan - Port de Barberousse</name>
	</wpt>
	<wpt lat="42.657" lon="18.0867">
		<type>WPT</type>
		<name>Gruz</name>
	</wpt>
	<wpt lat="37.2383" lon="27.5958">
		<type>WPT</type>
		<name>Güllük</name>
	</wpt>
	<wpt lat="37.0227" lon="27.3983">
		<type>WPT</type>
		<name>Gümbet</name>
	</wpt>
	<wpt lat="39.3767" lon="26.5933">
		<type>WPT</type>
		<name>Gümüs Koyu</name>
	</wpt>
	<wpt lat="37.0525" lon="27.2317">
		<type>WPT</type>
		<name>Gümüslük</name>
	</wpt>
	<wpt lat="37.1422" lon="27.3578">
		<type>WPT</type>
		<name>Gundogan</name>
	</wpt>
	<wpt lat="40.357" lon="28.9367">
		<type>WPT</type>
		<name>Guzelyali</name>
	</wpt>
	<wpt lat="36.7608" lon="22.571">
		<type>WPT</type>
		<name>Gythion</name>
	</wpt>
	<wpt lat="32.8083" lon="35.0278">
		<type>WPT</type>
		<name>Haifa - Kishon Marina</name>
	</wpt>
	<wpt lat="38.335" lon="23.7372">
		<type>WPT</type>
		<name>Halkoutsi</name>
	</wpt>
	<wpt lat="38.342" lon="23.7253">
		<type>WPT</type>
		<name>Halkoutsi - Evoiko Sea Center</name>
	</wpt>
	<wpt lat="36.395" lon="10.6083">
		<type>WPT</type>
		<name>Hammamet - port Yasmine</name>
	</wpt>
	<wpt lat="42.0622" lon="35.0437">
		<type>WPT</type>
		<name>Hamsilos Koyu</name>
	</wpt>
	<wpt lat="36.684" lon="27.5733">
		<type>WPT</type>
		<name>Hayit Bükü - Ogün's Place</name>
	</wpt>
	<wpt lat="35.3503" lon="25.155">
		<type>WPT</type>
		<name>Heraklion  - Iraklion,Candie</name>
	</wpt>
	<wpt lat="42.45" lon="18.5342">
		<type>WPT</type>
		<name>Herceg Novi</name>
	</wpt>
	<wpt lat="36.03" lon="10.51">
		<type>WPT</type>
		<name>Hergla</name>
	</wpt>
	<wpt lat="35.3192" lon="25.393">
		<type>WPT</type>
		<name>Hersonissos</name>
	</wpt>
	<wpt lat="32.1655" lon="34.7928">
		<type>WPT</type>
		<name>Herzliya marina</name>
	</wpt>
	<wpt lat="40.1" lon="19.7383">
		<type>WPT</type>
		<name>Himara</name>
	</wpt>
	<wpt lat="40.7077" lon="27.3133">
		<type>WPT</type>
		<name>Hosköy</name>
	</wpt>
	<wpt lat="40.9863" lon="0.918333">
		<type>WPT</type>
		<name>Hospitalet de l'Infant</name>
	</wpt>
	<wpt lat="39.4487" lon="20.0612">
		<type>WPT</type>
		<name>Hotel Attika</name>
	</wpt>
	<wpt lat="33.8907" lon="10.8563">
		<type>WPT</type>
		<name>Houmt-Souk</name>
	</wpt>
	<wpt lat="43.825" lon="15.5892">
		<type>WPT</type>
		<name>Hramina - marina</name>
	</wpt>
	<wpt lat="43.1705" lon="16.44">
		<type>WPT</type>
		<name>Hvar</name>
	</wpt>
	<wpt lat="37.3517" lon="23.4655">
		<type>WPT</type>
		<name>Hydra</name>
	</wpt>
	<wpt lat="43.08" lon="6.16333">
		<type>WPT</type>
		<name>Hyères</name>
	</wpt>
	<wpt lat="38.9102" lon="1.444">
		<type>WPT</type>
		<name>Ibiza</name>
	</wpt>
	<wpt lat="38.9127" lon="1.43767">
		<type>WPT</type>
		<name>Ibiza - Club Nautico</name>
	</wpt>
	<wpt lat="38.9127" lon="1.443">
		<type>WPT</type>
		<name>Ibiza - Ibiza Nueva</name>
	</wpt>
	<wpt lat="38.9075" lon="1.44917">
		<type>WPT</type>
		<name>Ibiza - marina Botafoch</name>
	</wpt>
	<wpt lat="36.7842" lon="23.0903">
		<type>WPT</type>
		<name>Ieraka</name>
	</wpt>
	<wpt lat="35.0005" lon="25.7375">
		<type>WPT</type>
		<name>Ierapetra </name>
	</wpt>
	<wpt lat="40.3972" lon="23.8917">
		<type>WPT</type>
		<name>Ierissos</name>
	</wpt>
	<wpt lat="39.5" lon="20.25">
		<type>WPT</type>
		<name>Igoumenitsa</name>
	</wpt>
	<wpt lat="38.3833" lon="26.4667">
		<type>WPT</type>
		<name>Ildir</name>
	</wpt>
	<wpt lat="40.3138" lon="23.9103">
		<type>WPT</type>
		<name>île Ammouliani</name>
	</wpt>
	<wpt lat="41.3658" lon="9.26833">
		<type>WPT</type>
		<name>île Cavallo</name>
	</wpt>
	<wpt lat="36.6613" lon="27.1232">
		<type>WPT</type>
		<name>île de Gyali</name>
	</wpt>
	<wpt lat="39.1585" lon="23.9543">
		<type>WPT</type>
		<name>île de Peristera</name>
	</wpt>
	<wpt lat="43.7245" lon="15.4775">
		<type>WPT</type>
		<name>île de Smokvica</name>
	</wpt>
	<wpt lat="35.2958" lon="25.7388">
		<type>WPT</type>
		<name>île de Spinalonga</name>
	</wpt>
	<wpt lat="40.2013" lon="23.7857">
		<type>WPT</type>
		<name>île Diaporos</name>
	</wpt>
	<wpt lat="41.3408" lon="9.254">
		<type>WPT</type>
		<name>île Lavezzi</name>
	</wpt>
	<wpt lat="36.9517" lon="27.097">
		<type>WPT</type>
		<name>île Nikolaos</name>
	</wpt>
	<wpt lat="35.8833" lon="27.7722">
		<type>WPT</type>
		<name>île Prassonisi</name>
	</wpt>
	<wpt lat="42.6388" lon="8.93583">
		<type>WPT</type>
		<name>Ile Rousse</name>
	</wpt>
	<wpt lat="40.0138" lon="23.8247">
		<type>WPT</type>
		<name>île Spalathronisia</name>
	</wpt>
	<wpt lat="44.0163" lon="15.2567">
		<type>WPT</type>
		<name>îles d'Ugljan et de Pasman</name>
	</wpt>
	<wpt lat="43.99" lon="15.062">
		<type>WPT</type>
		<name>îles de Dugi Otok, de Katina et de Kornat</name>
	</wpt>
	<wpt lat="40.8583" lon="29.0923">
		<type>WPT</type>
		<name>îles des Princes</name>
	</wpt>
	<wpt lat="38.9875" lon="20.9208">
		<type>WPT</type>
		<name>îles Vouvalos</name>
	</wpt>
	<wpt lat="40.5042" lon="27.6905">
		<type>WPT</type>
		<name>Ilhanköy</name>
	</wpt>
	<wpt lat="38.3133" lon="26.3642">
		<type>WPT</type>
		<name>Ilica</name>
	</wpt>
	<wpt lat="43.883" lon="8.0405">
		<type>WPT</type>
		<name>Imperia - Oneglia</name>
	</wpt>
	<wpt lat="43.8758" lon="8.03">
		<type>WPT</type>
		<name>Imperia - Porto Maurizio</name>
	</wpt>
	<wpt lat="36.92" lon="28.1588">
		<type>WPT</type>
		<name>Ingilizi Limani</name>
	</wpt>
	<wpt lat="36.7238" lon="28.9705">
		<type>WPT</type>
		<name>Inlice Iskelesi</name>
	</wpt>
	<wpt lat="39.6953" lon="19.8385">
		<type>WPT</type>
		<name>Ipsos</name>
	</wpt>
	<wpt lat="36.8653" lon="25.4722">
		<type>WPT</type>
		<name>Iraklia (Agios Georgios)</name>
	</wpt>
	<wpt lat="40.747" lon="13.943">
		<type>WPT</type>
		<name>Ischia</name>
	</wpt>
	<wpt lat="39.8343" lon="3.17217">
		<type>WPT</type>
		<name>Isla Aucanada</name>
	</wpt>
	<wpt lat="37.7" lon="-0.783333">
		<type>WPT</type>
		<name>Islas Menores</name>
	</wpt>
	<wpt lat="35.5098" lon="12.5582">
		<type>WPT</type>
		<name>isola dei Conigli</name>
	</wpt>
	<wpt lat="38.2015" lon="13.2342">
		<type>WPT</type>
		<name>Isola Delle Femmine</name>
	</wpt>
	<wpt lat="45.0617" lon="12.3583">
		<type>WPT</type>
		<name>Isola di Albarella</name>
	</wpt>
	<wpt lat="41.0115" lon="8.87233">
		<type>WPT</type>
		<name>Isola Rosa</name>
	</wpt>
	<wpt lat="42.1183" lon="15.502">
		<type>WPT</type>
		<name>Isola San Nicola</name>
	</wpt>
	<wpt lat="44.2668" lon="14.767">
		<type>WPT</type>
		<name>Ist</name>
	</wpt>
	<wpt lat="40.9703" lon="28.8758">
		<type>WPT</type>
		<name>Istanbul - Atakoy Marina</name>
	</wpt>
	<wpt lat="40.9763" lon="29.0333">
		<type>WPT</type>
		<name>Istanbul - Kalamis-Fernebahçe marinas</name>
	</wpt>
	<wpt lat="41.1127" lon="29.0592">
		<type>WPT</type>
		<name>Istiniye</name>
	</wpt>
	<wpt lat="43.4967" lon="5.00167">
		<type>WPT</type>
		<name>Istres - Les Heures Claires</name>
	</wpt>
	<wpt lat="38.4288" lon="22.4233">
		<type>WPT</type>
		<name>Itea - marina</name>
	</wpt>
	<wpt lat="44.0295" lon="15.142">
		<type>WPT</type>
		<name>Iz Mali</name>
	</wpt>
	<wpt lat="38.4067" lon="27.0692">
		<type>WPT</type>
		<name>Izmir - Levent Marina</name>
	</wpt>
	<wpt lat="45.5333" lon="13.65">
		<type>WPT</type>
		<name>Izola</name>
	</wpt>
	<wpt lat="38.7945" lon="0.186">
		<type>WPT</type>
		<name>Javea</name>
	</wpt>
	<wpt lat="43.7842" lon="15.6472">
		<type>WPT</type>
		<name>Jezera</name>
	</wpt>
	<wpt lat="33.9892" lon="35.623">
		<type>WPT</type>
		<name>Jounié</name>
	</wpt>
	<wpt lat="43.5595" lon="7.12">
		<type>WPT</type>
		<name>Juan-les-Pins - Crouton</name>
	</wpt>
	<wpt lat="43.5633" lon="7.11333">
		<type>WPT</type>
		<name>Juan-les-Pins - Gallice</name>
	</wpt>
	<wpt lat="43.5705" lon="7.14783">
		<type>WPT</type>
		<name>Juan-les-Pins - La Salis</name>
	</wpt>
	<wpt lat="35.7217" lon="-5.3345">
		<type>WPT</type>
		<name>Kabila</name>
	</wpt>
	<wpt lat="36.7333" lon="28.2972">
		<type>WPT</type>
		<name>Kadirga Limani</name>
	</wpt>
	<wpt lat="36.683" lon="27.5775">
		<type>WPT</type>
		<name>Kalaboshi</name>
	</wpt>
	<wpt lat="40.5767" lon="22.9417">
		<type>WPT</type>
		<name>Kalamaria - Aretsou marina</name>
	</wpt>
	<wpt lat="37.023" lon="22.1038">
		<type>WPT</type>
		<name>Kalamata - Kalamata Marina</name>
	</wpt>
	<wpt lat="38.6222" lon="20.9333">
		<type>WPT</type>
		<name>Kalamos</name>
	</wpt>
	<wpt lat="36.19" lon="29.8617">
		<type>WPT</type>
		<name>Kale köy</name>
	</wpt>
	<wpt lat="34.9292" lon="24.8028">
		<type>WPT</type>
		<name>Kali Limenes</name>
	</wpt>
	<wpt lat="36.2597" lon="29.4153">
		<type>WPT</type>
		<name>Kalkan</name>
	</wpt>
	<wpt lat="40.7105" lon="24.5312">
		<type>WPT</type>
		<name>Kallirachis Skala</name>
	</wpt>
	<wpt lat="38.3472" lon="22.1555">
		<type>WPT</type>
		<name>Kallithea</name>
	</wpt>
	<wpt lat="39.0772" lon="26.075">
		<type>WPT</type>
		<name>Kallonis Kolpos</name>
	</wpt>
	<wpt lat="36.7935" lon="25.748">
		<type>WPT</type>
		<name>Kalotaritissa</name>
	</wpt>
	<wpt lat="36.8838" lon="25.9247">
		<type>WPT</type>
		<name>Kalotiri</name>
	</wpt>
	<wpt lat="36.9913" lon="24.6738">
		<type>WPT</type>
		<name>Kamares</name>
	</wpt>
	<wpt lat="36.7378" lon="26.9728">
		<type>WPT</type>
		<name>Kamari - Kefalos</name>
	</wpt>
	<wpt lat="40.4717" lon="25.4667">
		<type>WPT</type>
		<name>Kamariotissa</name>
	</wpt>
	<wpt lat="36.2738" lon="27.8263">
		<type>WPT</type>
		<name>Kameiros Skala</name>
	</wpt>
	<wpt lat="36.7303" lon="28.0513">
		<type>WPT</type>
		<name>Kamerye Adasi - baie Ouest</name>
	</wpt>
	<wpt lat="36.7253" lon="28.0558">
		<type>WPT</type>
		<name>Kamerye Adasi - côte sud</name>
	</wpt>
	<wpt lat="37.567" lon="26.4725">
		<type>WPT</type>
		<name>Kampi</name>
	</wpt>
	<wpt lat="36.6447" lon="28.8938">
		<type>WPT</type>
		<name>Kapi Creek</name>
	</wpt>
	<wpt lat="36.143" lon="23">
		<type>WPT</type>
		<name>Kapsali</name>
	</wpt>
	<wpt lat="36.9867" lon="27.4505">
		<type>WPT</type>
		<name>Karaada</name>
	</wpt>
	<wpt lat="38.4212" lon="26.3387">
		<type>WPT</type>
		<name>Karaada Adasi</name>
	</wpt>
	<wpt lat="36.8667" lon="28.0433">
		<type>WPT</type>
		<name>Karaagaç</name>
	</wpt>
	<wpt lat="38.405" lon="26.4667">
		<type>WPT</type>
		<name>Karabag Adasi</name>
	</wpt>
	<wpt lat="40.4" lon="27.3087">
		<type>WPT</type>
		<name>Karabiga</name>
	</wpt>
	<wpt lat="38.6495" lon="26.5145">
		<type>WPT</type>
		<name>Karaburun Iskele</name>
	</wpt>
	<wpt lat="36.54" lon="29.0565">
		<type>WPT</type>
		<name>Karacaören</name>
	</wpt>
	<wpt lat="36.9442" lon="28.1867">
		<type>WPT</type>
		<name>Karacasögüt</name>
	</wpt>
	<wpt lat="40.0485" lon="26.345">
		<type>WPT</type>
		<name>Karantina Koy</name>
	</wpt>
	<wpt lat="37.54" lon="22.8145">
		<type>WPT</type>
		<name>Karathona</name>
	</wpt>
	<wpt lat="34.8467" lon="24.1167">
		<type>WPT</type>
		<name>Karave</name>
	</wpt>
	<wpt lat="38.8842" lon="22.7078">
		<type>WPT</type>
		<name>Karavomylos</name>
	</wpt>
	<wpt lat="36.613" lon="24.95">
		<type>WPT</type>
		<name>Karavostasi</name>
	</wpt>
	<wpt lat="36.7833" lon="27.1472">
		<type>WPT</type>
		<name>Kardamainas</name>
	</wpt>
	<wpt lat="38.5453" lon="26.113">
		<type>WPT</type>
		<name>Kardamyla</name>
	</wpt>
	<wpt lat="36.7008" lon="29.0263">
		<type>WPT</type>
		<name>Kargi Bükü</name>
	</wpt>
	<wpt lat="36.7" lon="27.6833">
		<type>WPT</type>
		<name>Kargi Köyü</name>
	</wpt>
	<wpt lat="36.9883" lon="27.57">
		<type>WPT</type>
		<name>Kargiçik Bükü</name>
	</wpt>
	<wpt lat="36.6788" lon="27.6137">
		<type>WPT</type>
		<name>Kargili Bükü</name>
	</wpt>
	<wpt lat="36.9358" lon="28.0967">
		<type>WPT</type>
		<name>Kargilibük</name>
	</wpt>
	<wpt lat="38.0092" lon="24.4142">
		<type>WPT</type>
		<name>Karistos</name>
	</wpt>
	<wpt lat="37.5167" lon="26.0167">
		<type>WPT</type>
		<name>Karkinagri</name>
	</wpt>
	<wpt lat="37.7988" lon="26.685">
		<type>WPT</type>
		<name>Karlovassi</name>
	</wpt>
	<wpt lat="40.4375" lon="28.0008">
		<type>WPT</type>
		<name>Karsiyaka</name>
	</wpt>
	<wpt lat="36.1955" lon="29.6433">
		<type>WPT</type>
		<name>Kas</name>
	</wpt>
	<wpt lat="36.2037" lon="29.627">
		<type>WPT</type>
		<name>Kas marina</name>
	</wpt>
	<wpt lat="38.568" lon="20.9125">
		<type>WPT</type>
		<name>Kastos</name>
	</wpt>
	<wpt lat="37.6488" lon="21.3183">
		<type>WPT</type>
		<name>Katakolon</name>
	</wpt>
	<wpt lat="36.8288" lon="25.8642">
		<type>WPT</type>
		<name>Katapola</name>
	</wpt>
	<wpt lat="38.2653" lon="26.1042">
		<type>WPT</type>
		<name>Kataraktis</name>
	</wpt>
	<wpt lat="39.173" lon="23.348">
		<type>WPT</type>
		<name>Katigiorgis</name>
	</wpt>
	<wpt lat="39.3075" lon="23.1017">
		<type>WPT</type>
		<name>Kato Gatzéa</name>
	</wpt>
	<wpt lat="40.9303" lon="24.4042">
		<type>WPT</type>
		<name>Kavala</name>
	</wpt>
	<wpt lat="39.4143" lon="20.1">
		<type>WPT</type>
		<name>Kavos</name>
	</wpt>
	<wpt lat="38.8253" lon="22.8325">
		<type>WPT</type>
		<name>Kavos - -1</name>
	</wpt>
	<wpt lat="39.0017" lon="26.5383">
		<type>WPT</type>
		<name>Kavourolimni</name>
	</wpt>
	<wpt lat="38.5617" lon="26.5717">
		<type>WPT</type>
		<name>Kaynarpinar</name>
	</wpt>
	<wpt lat="37.3333" lon="27.482">
		<type>WPT</type>
		<name>Kazikli</name>
	</wpt>
	<wpt lat="36.7577" lon="28.1288">
		<type>WPT</type>
		<name>Keçi Bükü</name>
	</wpt>
	<wpt lat="39.3542" lon="20.2833">
		<type>WPT</type>
		<name>Kefalari</name>
	</wpt>
	<wpt lat="36.175" lon="29.8333">
		<type>WPT</type>
		<name>Kekova limani</name>
	</wpt>
	<wpt lat="36.8333" lon="11.11">
		<type>WPT</type>
		<name>Kelibia</name>
	</wpt>
	<wpt lat="36.6023" lon="30.5713">
		<type>WPT</type>
		<name>Kemer</name>
	</wpt>
	<wpt lat="37.5742" lon="26.4555">
		<type>WPT</type>
		<name>Kerameidou</name>
	</wpt>
	<wpt lat="37.682" lon="20.8375">
		<type>WPT</type>
		<name>Keri</name>
	</wpt>
	<wpt lat="39.6278" lon="19.9167">
		<type>WPT</type>
		<name>Kerkira</name>
	</wpt>
	<wpt lat="39.621" lon="19.926">
		<type>WPT</type>
		<name>Kerkira - Mandraki</name>
	</wpt>
	<wpt lat="36.9508" lon="28.1728">
		<type>WPT</type>
		<name>Kesr</name>
	</wpt>
	<wpt lat="37.5347" lon="22.9195">
		<type>WPT</type>
		<name>Khaidhari</name>
	</wpt>
	<wpt lat="36.2218" lon="27.614">
		<type>WPT</type>
		<name>Khalki</name>
	</wpt>
	<wpt lat="35.5195" lon="24.0167">
		<type>WPT</type>
		<name>Khania</name>
	</wpt>
	<wpt lat="37.6605" lon="24.3147">
		<type>WPT</type>
		<name>Khorissia</name>
	</wpt>
	<wpt lat="37.628" lon="26.5063">
		<type>WPT</type>
		<name>Khrisomilia</name>
	</wpt>
	<wpt lat="38.0138" lon="22.755">
		<type>WPT</type>
		<name>Kiato</name>
	</wpt>
	<wpt lat="37.9338" lon="21.1503">
		<type>WPT</type>
		<name>Killini</name>
	</wpt>
	<wpt lat="40.9043" lon="29.0447">
		<type>WPT</type>
		<name>Kinali Ada</name>
	</wpt>
	<wpt lat="37.2583" lon="21.6667">
		<type>WPT</type>
		<name>Kiparissia</name>
	</wpt>
	<wpt lat="38.1417" lon="26.5692">
		<type>WPT</type>
		<name>Kirdilim</name>
	</wpt>
	<wpt lat="37.6133" lon="26.2983">
		<type>WPT</type>
		<name>Kirikos</name>
	</wpt>
	<wpt lat="35.5152" lon="23.641">
		<type>WPT</type>
		<name>Kissamos - Kastelli</name>
	</wpt>
	<wpt lat="36.6687" lon="28.015">
		<type>WPT</type>
		<name>Kizil  Adasi</name>
	</wpt>
	<wpt lat="36.6942" lon="29.0355">
		<type>WPT</type>
		<name>Kizil Ada</name>
	</wpt>
	<wpt lat="36.6183" lon="28.8705">
		<type>WPT</type>
		<name>Kizilkyuruk Köyü</name>
	</wpt>
	<wpt lat="36.7345" lon="24.4198">
		<type>WPT</type>
		<name>Klima</name>
	</wpt>
	<wpt lat="36.6832" lon="27.38">
		<type>WPT</type>
		<name>Knidos</name>
	</wpt>
	<wpt lat="36.1747" lon="29.8187">
		<type>WPT</type>
		<name>Kocaari Koyu</name>
	</wpt>
	<wpt lat="36.7025" lon="28.01">
		<type>WPT</type>
		<name>Kocabahçe</name>
	</wpt>
	<wpt lat="37.4183" lon="23.1283">
		<type>WPT</type>
		<name>Koiladhia</name>
	</wpt>
	<wpt lat="37.7803" lon="26.8967">
		<type>WPT</type>
		<name>Kokari</name>
	</wpt>
	<wpt lat="37.6333" lon="25.1417">
		<type>WPT</type>
		<name>Kolibithra</name>
	</wpt>
	<wpt lat="38.1995" lon="26.048">
		<type>WPT</type>
		<name>Komis</name>
	</wpt>
	<wpt lat="43.0433" lon="16.0825">
		<type>WPT</type>
		<name>Komiza</name>
	</wpt>
	<wpt lat="39.8267" lon="25.1383">
		<type>WPT</type>
		<name>Kontias</name>
	</wpt>
	<wpt lat="45.5333" lon="13.7167">
		<type>WPT</type>
		<name>Koper</name>
	</wpt>
	<wpt lat="37.3595" lon="23.0673">
		<type>WPT</type>
		<name>Korakonisia</name>
	</wpt>
	<wpt lat="42.9578" lon="17.1388">
		<type>WPT</type>
		<name>Korcula - marina</name>
	</wpt>
	<wpt lat="37.7595" lon="23.1258">
		<type>WPT</type>
		<name>Korfos</name>
	</wpt>
	<wpt lat="36.772" lon="27.6163">
		<type>WPT</type>
		<name>Kormen - Korkoy</name>
	</wpt>
	<wpt lat="38.0303" lon="26.868">
		<type>WPT</type>
		<name>Körmen Adasi</name>
	</wpt>
	<wpt lat="36.7997" lon="21.9595">
		<type>WPT</type>
		<name>Koroni</name>
	</wpt>
	<wpt lat="39.0125" lon="20.9125">
		<type>WPT</type>
		<name>Koronissia</name>
	</wpt>
	<wpt lat="36.8992" lon="27.2888">
		<type>WPT</type>
		<name>Kos</name>
	</wpt>
	<wpt lat="36.8938" lon="27.2992">
		<type>WPT</type>
		<name>Kos - marina</name>
	</wpt>
	<wpt lat="42.4263" lon="18.7667">
		<type>WPT</type>
		<name>Kotor</name>
	</wpt>
	<wpt lat="36.6178" lon="22.4958">
		<type>WPT</type>
		<name>Kotronas</name>
	</wpt>
	<wpt lat="39.1133" lon="23.1007">
		<type>WPT</type>
		<name>Kottes</name>
	</wpt>
	<wpt lat="39.7445" lon="19.9417">
		<type>WPT</type>
		<name>Kouloura</name>
	</wpt>
	<wpt lat="37.1353" lon="24.4553">
		<type>WPT</type>
		<name>Koutala</name>
	</wpt>
	<wpt lat="43.5693" lon="15.9403">
		<type>WPT</type>
		<name>Kremik</name>
	</wpt>
	<wpt lat="36.7925" lon="28.0217">
		<type>WPT</type>
		<name>Kücük çati'da Sabah</name>
	</wpt>
	<wpt lat="36.7072" lon="29.0078">
		<type>WPT</type>
		<name>Kücük Kargi Köyü</name>
	</wpt>
	<wpt lat="36.7933" lon="28.015">
		<type>WPT</type>
		<name>Kücük Kati</name>
	</wpt>
	<wpt lat="36.6295" lon="28.882">
		<type>WPT</type>
		<name>Küçük Kyuruk</name>
	</wpt>
	<wpt lat="39.543" lon="26.6055">
		<type>WPT</type>
		<name>Kücükkuyu</name>
	</wpt>
	<wpt lat="36.8047" lon="28.5367">
		<type>WPT</type>
		<name>Küçüsenizce Köyü</name>
	</wpt>
	<wpt lat="36.7255" lon="28.0895">
		<type>WPT</type>
		<name>Kucuven Burnu</name>
	</wpt>
	<wpt lat="36.5305" lon="34.2305">
		<type>WPT</type>
		<name>Kum Kuyu</name>
	</wpt>
	<wpt lat="40.4222" lon="27.9683">
		<type>WPT</type>
		<name>Kum Limani</name>
	</wpt>
	<wpt lat="40.8638" lon="27.4627">
		<type>WPT</type>
		<name>Kumbag</name>
	</wpt>
	<wpt lat="36.7542" lon="28.2772">
		<type>WPT</type>
		<name>Kumlu Bükü</name>
	</wpt>
	<wpt lat="40.3847" lon="28.8305">
		<type>WPT</type>
		<name>Kumyaka</name>
	</wpt>
	<wpt lat="36.7533" lon="27.9103">
		<type>WPT</type>
		<name>Kuruca Bükü</name>
	</wpt>
	<wpt lat="41.8483" lon="32.7295">
		<type>WPT</type>
		<name>Kurucasile</name>
	</wpt>
	<wpt lat="37.8663" lon="27.257">
		<type>WPT</type>
		<name>Kusadasi</name>
	</wpt>
	<wpt lat="37.1487" lon="27.5508">
		<type>WPT</type>
		<name>Kuyucak Limani</name>
	</wpt>
	<wpt lat="36.7942" lon="28.082">
		<type>WPT</type>
		<name>Kuyulu Bükü</name>
	</wpt>
	<wpt lat="40.23" lon="25.955">
		<type>WPT</type>
		<name>Kuzu Limani</name>
	</wpt>
	<wpt lat="39.3167" lon="24.04">
		<type>WPT</type>
		<name>Kyra Panagia</name>
	</wpt>
	<wpt lat="40.88" lon="0.803333">
		<type>WPT</type>
		<name>L'Ametlla de Mar</name>
	</wpt>
	<wpt lat="40.8055" lon="0.711333">
		<type>WPT</type>
		<name>L'Ampolla</name>
	</wpt>
	<wpt lat="42.1233" lon="3.14667">
		<type>WPT</type>
		<name>L'Escala</name>
	</wpt>
	<wpt lat="43.3567" lon="5.31333">
		<type>WPT</type>
		<name>L'Estaque</name>
	</wpt>
	<wpt lat="42.05" lon="3.20667">
		<type>WPT</type>
		<name>L'Estartit</name>
	</wpt>
	<wpt lat="43.2003" lon="5.48833">
		<type>WPT</type>
		<name>L'Oule</name>
	</wpt>
	<wpt lat="36.7528" lon="-3.845">
		<type>WPT</type>
		<name>La Caleta</name>
	</wpt>
	<wpt lat="40.61" lon="9.75667">
		<type>WPT</type>
		<name>La Caletta</name>
	</wpt>
	<wpt lat="43.0647" lon="6.15217">
		<type>WPT</type>
		<name>La Capte</name>
	</wpt>
	<wpt lat="35.23" lon="11.1667">
		<type>WPT</type>
		<name>La Chebba</name>
	</wpt>
	<wpt lat="43.1725" lon="5.61283">
		<type>WPT</type>
		<name>La Ciotat</name>
	</wpt>
	<wpt lat="43.1767" lon="5.61417">
		<type>WPT</type>
		<name>La Ciotat - bassins Bérouard et des Capucins</name>
	</wpt>
	<wpt lat="43.4833" lon="6.9325">
		<type>WPT</type>
		<name>La Figueirette</name>
	</wpt>
	<wpt lat="43.5" lon="6.95667">
		<type>WPT</type>
		<name>La Galère</name>
	</wpt>
	<wpt lat="36.8067" lon="10.3033">
		<type>WPT</type>
		<name>La Goulette</name>
	</wpt>
	<wpt lat="43.5517" lon="4.08167">
		<type>WPT</type>
		<name>La Grande Motte</name>
	</wpt>
	<wpt lat="37.6483" lon="-0.723667">
		<type>WPT</type>
		<name>La Isleta</name>
	</wpt>
	<wpt lat="35.0417" lon="11.0333">
		<type>WPT</type>
		<name>La Louata</name>
	</wpt>
	<wpt lat="41.213" lon="9.42917">
		<type>WPT</type>
		<name>La Maddalena - cala Camiciotto</name>
	</wpt>
	<wpt lat="41.212" lon="9.41283">
		<type>WPT</type>
		<name>La Maddalena - cala Mangiavolpe</name>
	</wpt>
	<wpt lat="41.2167" lon="9.44">
		<type>WPT</type>
		<name>La Maddalena - marina del Ponte</name>
	</wpt>
	<wpt lat="41.215" lon="9.382">
		<type>WPT</type>
		<name>La Maddalena - Nido d'Aquila</name>
	</wpt>
	<wpt lat="43.1667" lon="5.69333">
		<type>WPT</type>
		<name>La Madrague</name>
	</wpt>
	<wpt lat="42.1167" lon="11.7667">
		<type>WPT</type>
		<name>La Mattonara</name>
	</wpt>
	<wpt lat="43.5137" lon="6.93883">
		<type>WPT</type>
		<name>La Rague</name>
	</wpt>
	<wpt lat="39.3597" lon="2.95417">
		<type>WPT</type>
		<name>La Rapita</name>
	</wpt>
	<wpt lat="38.73" lon="1.42">
		<type>WPT</type>
		<name>La Savina</name>
	</wpt>
	<wpt lat="38.7333" lon="1.417">
		<type>WPT</type>
		<name>La Savina - Formentera Mar</name>
	</wpt>
	<wpt lat="38.7333" lon="1.41667">
		<type>WPT</type>
		<name>La Savina - marina de Formentera</name>
	</wpt>
	<wpt lat="43.1033" lon="5.88333">
		<type>WPT</type>
		<name>La Seyne-sur-Mer</name>
	</wpt>
	<wpt lat="34.2855" lon="10.0967">
		<type>WPT</type>
		<name>La Skhira</name>
	</wpt>
	<wpt lat="44.0958" lon="9.85833">
		<type>WPT</type>
		<name>La Spezia - Porto Lotti</name>
	</wpt>
	<wpt lat="44.1033" lon="9.83833">
		<type>WPT</type>
		<name>La Spezia - Porto turistico Benedetti</name>
	</wpt>
	<wpt lat="35.9058" lon="14.5245">
		<type>WPT</type>
		<name>La Valette</name>
	</wpt>
	<wpt lat="35.8887" lon="14.5193">
		<type>WPT</type>
		<name>La Valette - Grand Harbour Marina</name>
	</wpt>
	<wpt lat="35.9027" lon="14.5">
		<type>WPT</type>
		<name>La Valette - Lazzaretto Quay</name>
	</wpt>
	<wpt lat="35.9025" lon="14.4995">
		<type>WPT</type>
		<name>La Valette - Manoel island</name>
	</wpt>
	<wpt lat="35.896" lon="14.5">
		<type>WPT</type>
		<name>La Valette - Msida Marina</name>
	</wpt>
	<wpt lat="35.901" lon="14.4987">
		<type>WPT</type>
		<name>La Valette - Ta'Xbiex Quay</name>
	</wpt>
	<wpt lat="35.8975" lon="14.5">
		<type>WPT</type>
		<name>La Valette - Whitehall Quay</name>
	</wpt>
	<wpt lat="42.757" lon="9.46717">
		<type>WPT</type>
		<name>La Vasina</name>
	</wpt>
	<wpt lat="40.753" lon="13.893">
		<type>WPT</type>
		<name>Lacco Ameno</name>
	</wpt>
	<wpt lat="38.4775" lon="26.1262">
		<type>WPT</type>
		<name>Lagkada</name>
	</wpt>
	<wpt lat="36.3172" lon="28.208">
		<type>WPT</type>
		<name>Lakido</name>
	</wpt>
	<wpt lat="39.236" lon="20.1333">
		<type>WPT</type>
		<name>Lakka</name>
	</wpt>
	<wpt lat="37.1283" lon="26.85">
		<type>WPT</type>
		<name>Lakki</name>
	</wpt>
	<wpt lat="37.1255" lon="26.85">
		<type>WPT</type>
		<name>Lakki - -1</name>
	</wpt>
	<wpt lat="37.1285" lon="26.856">
		<type>WPT</type>
		<name>Lakki - Leros Marina</name>
	</wpt>
	<wpt lat="35.4933" lon="12.6017">
		<type>WPT</type>
		<name>Lampedusa</name>
	</wpt>
	<wpt lat="35.5483" lon="12.32">
		<type>WPT</type>
		<name>Lampione</name>
	</wpt>
	<wpt lat="38.6547" lon="20.7987">
		<type>WPT</type>
		<name>Langada</name>
	</wpt>
	<wpt lat="34.9188" lon="33.643">
		<type>WPT</type>
		<name>Larnaka</name>
	</wpt>
	<wpt lat="38.57" lon="23.2908">
		<type>WPT</type>
		<name>Larymnas</name>
	</wpt>
	<wpt lat="40.2472" lon="0.2875">
		<type>WPT</type>
		<name>Las Fuentes</name>
	</wpt>
	<wpt lat="44.3033" lon="9.3445">
		<type>WPT</type>
		<name>Lavagna</name>
	</wpt>
	<wpt lat="37.7042" lon="24.0683">
		<type>WPT</type>
		<name>Lavrion</name>
	</wpt>
	<wpt lat="37.6945" lon="24.0638">
		<type>WPT</type>
		<name>Lavrion - Olympic marina</name>
	</wpt>
	<wpt lat="43.075" lon="5.8">
		<type>WPT</type>
		<name>Le Brusc</name>
	</wpt>
	<wpt lat="38.909" lon="17.0295">
		<type>WPT</type>
		<name>Le Castella</name>
	</wpt>
	<wpt lat="43.2045" lon="5.482">
		<type>WPT</type>
		<name>Le Devenson</name>
	</wpt>
	<wpt lat="44.0672" lon="9.83717">
		<type>WPT</type>
		<name>Le Grazie</name>
	</wpt>
	<wpt lat="43.1358" lon="6.37217">
		<type>WPT</type>
		<name>Le Lavandou</name>
	</wpt>
	<wpt lat="43.0338" lon="6.1295">
		<type>WPT</type>
		<name>Le Niel</name>
	</wpt>
	<wpt lat="43.027" lon="6.153">
		<type>WPT</type>
		<name>Le Pradeau</name>
	</wpt>
	<wpt lat="38.4108" lon="23.6772">
		<type>WPT</type>
		<name>Lefkandi</name>
	</wpt>
	<wpt lat="38.833" lon="20.7128">
		<type>WPT</type>
		<name>Lefkas</name>
	</wpt>
	<wpt lat="38.8188" lon="20.7188">
		<type>WPT</type>
		<name>Lefkas - marina</name>
	</wpt>
	<wpt lat="37.145" lon="22.8933">
		<type>WPT</type>
		<name>Leonidhion</name>
	</wpt>
	<wpt lat="37.4105" lon="23.1125">
		<type>WPT</type>
		<name>Lepitsa</name>
	</wpt>
	<wpt lat="44.0712" lon="9.90133">
		<type>WPT</type>
		<name>Lerici</name>
	</wpt>
	<wpt lat="38.6562" lon="0.085">
		<type>WPT</type>
		<name>Les Bassetes</name>
	</wpt>
	<wpt lat="43.3588" lon="6.72">
		<type>WPT</type>
		<name>Les Issambres - Ferréol</name>
	</wpt>
	<wpt lat="43.3413" lon="6.68333">
		<type>WPT</type>
		<name>Les Issambres - Port Tonic</name>
	</wpt>
	<wpt lat="43.3392" lon="6.6845">
		<type>WPT</type>
		<name>Les Issambres - San-Peïre</name>
	</wpt>
	<wpt lat="43.086" lon="6.01933">
		<type>WPT</type>
		<name>Les Oursinières</name>
	</wpt>
	<wpt lat="37.9847" lon="12.3403">
		<type>WPT</type>
		<name>Levanzo - Cala Dogana</name>
	</wpt>
	<wpt lat="36.997" lon="26.4587">
		<type>WPT</type>
		<name>Levitha</name>
	</wpt>
	<wpt lat="37.09" lon="13.94">
		<type>WPT</type>
		<name>Licata</name>
	</wpt>
	<wpt lat="44.6743" lon="12.2352">
		<type>WPT</type>
		<name>Lido Degli Estensi</name>
	</wpt>
	<wpt lat="45.4857" lon="12.5853">
		<type>WPT</type>
		<name>Lido di Jesolo - Nautica dal Vi</name>
	</wpt>
	<wpt lat="44.8028" lon="12.255">
		<type>WPT</type>
		<name>Lido di Volano</name>
	</wpt>
	<wpt lat="39.15" lon="20.5655">
		<type>WPT</type>
		<name>Ligia</name>
	</wpt>
	<wpt lat="45.6568" lon="13.0693">
		<type>WPT</type>
		<name>Lignano Riviera - marina Punta Verde</name>
	</wpt>
	<wpt lat="45.6495" lon="13.093">
		<type>WPT</type>
		<name>Lignano Riviera - marina Uno</name>
	</wpt>
	<wpt lat="45.6493" lon="13.0928">
		<type>WPT</type>
		<name>Lignano Sabbiadoro</name>
	</wpt>
	<wpt lat="45.7032" lon="13.1467">
		<type>WPT</type>
		<name>Lignano Sabbiadoro - marina Punta Faro</name>
	</wpt>
	<wpt lat="34.7" lon="33.1667">
		<type>WPT</type>
		<name>Limassol - marina St Raphael</name>
	</wpt>
	<wpt lat="36.6903" lon="22.3792">
		<type>WPT</type>
		<name>Limeni</name>
	</wpt>
	<wpt lat="38.4667" lon="25.9182">
		<type>WPT</type>
		<name>Limia  Volissos</name>
	</wpt>
	<wpt lat="38.7567" lon="23.3207">
		<type>WPT</type>
		<name>Limni</name>
	</wpt>
	<wpt lat="36.7737" lon="26.9667">
		<type>WPT</type>
		<name>Limnionas Limeniskos</name>
	</wpt>
	<wpt lat="42.927" lon="17.172">
		<type>WPT</type>
		<name>Lina</name>
	</wpt>
	<wpt lat="38.8428" lon="24.5367">
		<type>WPT</type>
		<name>Linaria</name>
	</wpt>
	<wpt lat="36.0958" lon="28.0928">
		<type>WPT</type>
		<name>Lindos</name>
	</wpt>
	<wpt lat="36.86" lon="25.5388">
		<type>WPT</type>
		<name>Lioliou</name>
	</wpt>
	<wpt lat="38.5192" lon="14.9408">
		<type>WPT</type>
		<name>Lipari - Acquacalda</name>
	</wpt>
	<wpt lat="38.4917" lon="14.9633">
		<type>WPT</type>
		<name>Lipari - Canneto</name>
	</wpt>
	<wpt lat="38.4658" lon="14.9583">
		<type>WPT</type>
		<name>Lipari - marina Corta</name>
	</wpt>
	<wpt lat="38.4717" lon="14.9583">
		<type>WPT</type>
		<name>Lipari - Marina Lunga</name>
	</wpt>
	<wpt lat="38.4758" lon="14.9625">
		<type>WPT</type>
		<name>Lipari - Pignataro</name>
	</wpt>
	<wpt lat="38.5167" lon="14.9667">
		<type>WPT</type>
		<name>Lipari - Porticello</name>
	</wpt>
	<wpt lat="38.4583" lon="14.96">
		<type>WPT</type>
		<name>Lipari - Portinente</name>
	</wpt>
	<wpt lat="38.4713" lon="14.9578">
		<type>WPT</type>
		<name>Lipari - Sottomonastero</name>
	</wpt>
	<wpt lat="37.2897" lon="26.7537">
		<type>WPT</type>
		<name>Lipso</name>
	</wpt>
	<wpt lat="41.1452" lon="9.51033">
		<type>WPT</type>
		<name>Liscia di Vacca</name>
	</wpt>
	<wpt lat="38.3428" lon="25.9925">
		<type>WPT</type>
		<name>Lithi</name>
	</wpt>
	<wpt lat="37.1403" lon="24.5193">
		<type>WPT</type>
		<name>Livadhi</name>
	</wpt>
	<wpt lat="36.4167" lon="27.3878">
		<type>WPT</type>
		<name>Livadhia</name>
	</wpt>
	<wpt lat="38.7058" lon="23.0633">
		<type>WPT</type>
		<name>Livanates</name>
	</wpt>
	<wpt lat="43.5472" lon="10.2987">
		<type>WPT</type>
		<name>Livorno - Porto Mediceo</name>
	</wpt>
	<wpt lat="38.2013" lon="20.443">
		<type>WPT</type>
		<name>Lixouri</name>
	</wpt>
	<wpt lat="41.89" lon="3.19667">
		<type>WPT</type>
		<name>Llafranc</name>
	</wpt>
	<wpt lat="42.3755" lon="3.16117">
		<type>WPT</type>
		<name>Llançà</name>
	</wpt>
	<wpt lat="44.1363" lon="8.27167">
		<type>WPT</type>
		<name>Loano</name>
	</wpt>
	<wpt lat="40.824" lon="9.7085">
		<type>WPT</type>
		<name>Loiri Porto San Paolo - Porto Brandinghi</name>
	</wpt>
	<wpt lat="40.885" lon="9.62833">
		<type>WPT</type>
		<name>Loiri Porto San Paolo - Porto Spurlatta'</name>
	</wpt>
	<wpt lat="39.2263" lon="20.1638">
		<type>WPT</type>
		<name>Longos</name>
	</wpt>
	<wpt lat="42.6908" lon="17.9402">
		<type>WPT</type>
		<name>Lopud</name>
	</wpt>
	<wpt lat="37.7333" lon="-0.848833">
		<type>WPT</type>
		<name>Los Alcazares</name>
	</wpt>
	<wpt lat="37.6527" lon="-0.784667">
		<type>WPT</type>
		<name>Los Nietos</name>
	</wpt>
	<wpt lat="37.4417" lon="24.4277">
		<type>WPT</type>
		<name>Loutra</name>
	</wpt>
	<wpt lat="38.8492" lon="22.9883">
		<type>WPT</type>
		<name>Loutra - -1</name>
	</wpt>
	<wpt lat="39.1575" lon="23.6083">
		<type>WPT</type>
		<name>Loutraki</name>
	</wpt>
	<wpt lat="35.1917" lon="24.075">
		<type>WPT</type>
		<name>Loutro</name>
	</wpt>
	<wpt lat="42.765" lon="16.8217">
		<type>WPT</type>
		<name>Luka Velji Lago</name>
	</wpt>
	<wpt lat="38.7883" lon="20.7208">
		<type>WPT</type>
		<name>Lygia</name>
	</wpt>
	<wpt lat="35.6842" lon="-5.31333">
		<type>WPT</type>
		<name>M'Diq</name>
	</wpt>
	<wpt lat="42.9617" lon="9.45417">
		<type>WPT</type>
		<name>Macinaggio</name>
	</wpt>
	<wpt lat="38.1875" lon="20.4833">
		<type>WPT</type>
		<name>Maestratou</name>
	</wpt>
	<wpt lat="42.7995" lon="10.3575">
		<type>WPT</type>
		<name>Magazzini</name>
	</wpt>
	<wpt lat="35.5" lon="11.0633">
		<type>WPT</type>
		<name>Mahdia</name>
	</wpt>
	<wpt lat="39.8667" lon="4.31">
		<type>WPT</type>
		<name>Mahon</name>
	</wpt>
	<wpt lat="34.5133" lon="10.4983">
		<type>WPT</type>
		<name>Mahres</name>
	</wpt>
	<wpt lat="40.6432" lon="14.6358">
		<type>WPT</type>
		<name>Maiori</name>
	</wpt>
	<wpt lat="38.3417" lon="21.7208">
		<type>WPT</type>
		<name>Makinias</name>
	</wpt>
	<wpt lat="40.8467" lon="25.7503">
		<type>WPT</type>
		<name>Makri</name>
	</wpt>
	<wpt lat="36.7063" lon="-4.41667">
		<type>WPT</type>
		<name>Malaga</name>
	</wpt>
	<wpt lat="45.3473" lon="12.3163">
		<type>WPT</type>
		<name>Malamocco - marina Alberoni</name>
	</wpt>
	<wpt lat="45.4343" lon="12.2667">
		<type>WPT</type>
		<name>Malcontenta - Cantieri dalla Pieta</name>
	</wpt>
	<wpt lat="44.5347" lon="14.4638">
		<type>WPT</type>
		<name>Mali Losinj</name>
	</wpt>
	<wpt lat="36.575" lon="26.3875">
		<type>WPT</type>
		<name>Maltezena</name>
	</wpt>
	<wpt lat="43.5217" lon="6.94367">
		<type>WPT</type>
		<name>Mandelieu-la-Napoule</name>
	</wpt>
	<wpt lat="36.615" lon="27.1417">
		<type>WPT</type>
		<name>Mandraki</name>
	</wpt>