<?xml version="1.0"?>
<gpx>
	<wpt lat="35.724" lon="-1.13017">
		<type>WPT</type>
		<name>Archipel d'Habibas[en]Habibas archipelago</name>
	</wpt>
	<wpt lat="33.695" lon="10.735">
		<type>WPT</type>
		<name>Ajim</name>
	</wpt>
	<wpt lat="36.7697" lon="3.08383">
		<type>WPT</type>
		<name>Alger</name>
	</wpt>
	<wpt lat="36.8927" lon="7.78467">
		<type>WPT</type>
		<name>Annaba</name>
	</wpt>
	<wpt lat="36.75" lon="5.1">
		<type>WPT</type>
		<name>Bejaia</name>
	</wpt>
	<wpt lat="35.6217" lon="11.0497">
		<type>WPT</type>
		<name>Bekalta</name>
	</wpt>
	<wpt lat="36.4517" lon="10.7967">
		<type>WPT</type>
		<name>Beni Khiar</name>
	</wpt>
	<wpt lat="35.3088" lon="-1.38883">
		<type>WPT</type>
		<name>Beni Saf</name>
	</wpt>
	<wpt lat="37.2733" lon="9.88667">
		<type>WPT</type>
		<name>Bizerte</name>
	</wpt>
	<wpt lat="33.5395" lon="10.6895">
		<type>WPT</type>
		<name>Boughrara</name>
	</wpt>
	<wpt lat="34.73" lon="11.2933">
		<type>WPT</type>
		<name>El Attaya</name>
	</wpt>
	<wpt lat="36.9005" lon="8.4395">
		<type>WPT</type>
		<name>El Kala</name>
	</wpt>
	<wpt lat="33.8933" lon="10.1167">
		<type>WPT</type>
		<name>Gabes</name>
	</wpt>
	<wpt lat="37.1655" lon="10.192">
		<type>WPT</type>
		<name>Ghar el Melh</name>
	</wpt>
	<wpt lat="36.395" lon="10.6083">
		<type>WPT</type>
		<name>Hammamet - port Yasmine</name>
	</wpt>
	<wpt lat="36.03" lon="10.51">
		<type>WPT</type>
		<name>Hergla</name>
	</wpt>
	<wpt lat="33.8907" lon="10.8563">
		<type>WPT</type>
		<name>Houmt-Souk</name>
	</wpt>
	<wpt lat="35.7217" lon="-5.3345">
		<type>WPT</type>
		<name>Kabila</name>
	</wpt>
	<wpt lat="36.8333" lon="11.11">
		<type>WPT</type>
		<name>Kelibia</name>
	</wpt>
	<wpt lat="35.23" lon="11.1667">
		<type>WPT</type>
		<name>La Chebba</name>
	</wpt>
	<wpt lat="36.8067" lon="10.3033">
		<type>WPT</type>
		<name>La Goulette</name>
	</wpt>
	<wpt lat="35.0417" lon="11.0333">
		<type>WPT</type>
		<name>La Louata</name>
	</wpt>
	<wpt lat="34.2855" lon="10.0967">
		<type>WPT</type>
		<name>La Skhira</name>
	</wpt>
	<wpt lat="35.6842" lon="-5.31333">
		<type>WPT</type>
		<name>M'Diq</name>
	</wpt>
	<wpt lat="35.5" lon="11.0633">
		<type>WPT</type>
		<name>Mahdia</name>
	</wpt>
	<wpt lat="34.5133" lon="10.4983">
		<type>WPT</type>
		<name>Mahres</name>
	</wpt>
	<wpt lat="35.75" lon="-5.33833">
		<type>WPT</type>
		<name>Marina Smir</name>
	</wpt>
	<wpt lat="35.288" lon="-2.91883">
		<type>WPT</type>
		<name>Melilla</name>
	</wpt>
	<wpt lat="35.7778" lon="10.8377">
		<type>WPT</type>
		<name>Monastir - marina Cap Monastir</name>
	</wpt>
	<wpt lat="34.8283" lon="11.2567">
		<type>WPT</type>
		<name>Najet</name>
	</wpt>
	<wpt lat="35.8917" lon="10.6028">
		<type>WPT</type>
		<name>Port El Kantaoui</name>
	</wpt>
	<wpt lat="35.8025" lon="11.0212">
		<type>WPT</type>
		<name>Qurayyat</name>
	</wpt>
	<wpt lat="37.266" lon="10.069">
		<type>WPT</type>
		<name>Ras Zebib</name>
	</wpt>
	<wpt lat="35.115" lon="-2.29717">
		<type>WPT</type>
		<name>Saïdia - marina</name>
	</wpt>
	<wpt lat="35.39" lon="11.0462">
		<type>WPT</type>
		<name>Salakta</name>
	</wpt>
	<wpt lat="34.7283" lon="10.7633">
		<type>WPT</type>
		<name>Sfax</name>
	</wpt>
	<wpt lat="36.8667" lon="10.35">
		<type>WPT</type>
		<name>Sidi Bou Saïd</name>
	</wpt>
	<wpt lat="37.0217" lon="10.91">
		<type>WPT</type>
		<name>Sidi Daoud</name>
	</wpt>
	<wpt lat="37.168" lon="9.125">
		<type>WPT</type>
		<name>Sidi Mechrig</name>
	</wpt>
	<wpt lat="34.6567" lon="10.9673">
		<type>WPT</type>
		<name>Sidi Youssef</name>
	</wpt>
	<wpt lat="36.8892" lon="6.95">
		<type>WPT</type>
		<name>Skikda - Stora</name>
	</wpt>
	<wpt lat="35.825" lon="10.6433">
		<type>WPT</type>
		<name>Sousse</name>
	</wpt>
	<wpt lat="36.9592" lon="8.76333">
		<type>WPT</type>
		<name>Tabarka</name>
	</wpt>
	<wpt lat="35.6583" lon="10.9567">
		<type>WPT</type>
		<name>Teboulba</name>
	</wpt>
	<wpt lat="33.7008" lon="10.3643">
		<type>WPT</type>
		<name>Zarat</name>
	</wpt>
	<wpt lat="33.4833" lon="11.1167">
		<type>WPT</type>
		<name>Zarzis</name>
	</wpt>
</gpx>
